[
 {
  "State": "اردبيل",
  "City": "اردبيل",
  "lat": "38.2497444152832",
  "lon": "48.2942848205566"
 },
 {
  "State": "اردبيل",
  "City": "اصلاندوز",
  "lat": 39.442604064941406,
  "lon": 47.4100227355957
 },
 {
  "State": "اردبيل",
  "City": "آبي بيگلو",
  "lat": 38.28489685058594,
  "lon": 48.55250549316406
 },
 {
  "State": "اردبيل",
  "City": "بيله سوار",
  "lat": 39.37607955932617,
  "lon": 48.342708587646484
 },
 {
  "State": "اردبيل",
  "City": "پارس آباد",
  "lat": 39.64579391479492,
  "lon": 47.909950256347656
 },
 {
  "State": "اردبيل",
  "City": "تازه كند",
  "lat": 39.57558822631836,
  "lon": 48.01637649536133
 },
 {
  "State": "اردبيل",
  "City": "تازه كندانگوت",
  "lat": 39.04096603393555,
  "lon": 47.74365234375
 },
 {
  "State": "اردبيل",
  "City": "جعفرآباد",
  "lat": 39.43317794799805,
  "lon": 48.09788131713867
 },
 {
  "State": "اردبيل",
  "City": "خلخال",
  "lat": 37.620750427246094,
  "lon": 48.527366638183594
 },
 {
  "State": "اردبيل",
  "City": "رضي",
  "lat": 38.62902069091797,
  "lon": 48.09450912475586
 },
 {
  "State": "اردبيل",
  "City": "سرعين",
  "lat": 38.13766860961914,
  "lon": 48.07623291015625
 },
 {
  "State": "اردبيل",
  "City": "عنبران",
  "lat": 38.48768997192383,
  "lon": 48.435142517089844
 },
 {
  "State": "اردبيل",
  "City": "فخرآباد",
  "lat": 38.522987365722656,
  "lon": 47.861671447753906
 },
 {
  "State": "اردبيل",
  "City": "كلور",
  "lat": 37.38945388793945,
  "lon": 48.722904205322266
 },
 {
  "State": "اردبيل",
  "City": "كوراييم",
  "lat": 37.95056915283203,
  "lon": 48.23551559448242
 },
 {
  "State": "اردبيل",
  "City": "گرمي",
  "lat": 39.01218795776367,
  "lon": 48.08360290527344
 },
 {
  "State": "اردبيل",
  "City": "گيوي",
  "lat": 37.68416213989258,
  "lon": 48.33966827392578
 },
 {
  "State": "اردبيل",
  "City": "لاهرود",
  "lat": 38.5073356628418,
  "lon": 47.83047866821289
 },
 {
  "State": "اردبيل",
  "City": "مرادلو",
  "lat": 38.746761322021484,
  "lon": 47.74628448486328
 },
 {
  "State": "اردبيل",
  "City": "مشگين شهر",
  "lat": 38.397186279296875,
  "lon": 47.67258071899414
 },
 {
  "State": "اردبيل",
  "City": "نمين",
  "lat": 38.423648834228516,
  "lon": 48.48081970214844
 },
 {
  "State": "اردبيل",
  "City": "نير",
  "lat": 38.03521728515625,
  "lon": 48.00739288330078
 },
 {
  "State": "اردبيل",
  "City": "هشتجين",
  "lat": 37.363826751708984,
  "lon": 48.3245849609375
 },
 {
  "State": "اردبيل",
  "City": "هير",
  "lat": 38.075355529785156,
  "lon": 48.49797439575195
 },
 {
  "State": "اصفهان",
  "City": "ابريشم",
  "lat": 32.556114196777344,
  "lon": 51.573631286621094
 },
 {
  "State": "اصفهان",
  "City": "ابوزيدآباد",
  "lat": 33.90413284301758,
  "lon": 51.768001556396484
 },
 {
  "State": "اصفهان",
  "City": "اردستان",
  "lat": 33.3565788269043,
  "lon": 52.3781852722168
 },
 {
  "State": "اصفهان",
  "City": "اژيه",
  "lat": 32.44017028808594,
  "lon": 52.3795166015625
 },
 {
  "State": "اصفهان",
  "City": "اصفهان",
  "lat": 32.57763671875,
  "lon": 51.659053802490234
 },
 {
  "State": "اصفهان",
  "City": "افوس",
  "lat": 33.024139404296875,
  "lon": 50.092979431152344
 },
 {
  "State": "اصفهان",
  "City": "انارك",
  "lat": 33.306800842285156,
  "lon": 53.69702911376953
 },
 {
  "State": "اصفهان",
  "City": "ايمانشهر",
  "lat": 32.4703483581543,
  "lon": 51.46138381958008
 },
 {
  "State": "اصفهان",
  "City": "آران وبيدگل",
  "lat": 34.058197021484375,
  "lon": 51.482486724853516
 },
 {
  "State": "اصفهان",
  "City": "بادرود",
  "lat": 33.68975067138672,
  "lon": 52.01126480102539
 },
 {
  "State": "اصفهان",
  "City": "باغ بهادران",
  "lat": 32.37582015991211,
  "lon": 51.19124221801758
 },
 {
  "State": "اصفهان",
  "City": "بافران",
  "lat": 32.8366813659668,
  "lon": 53.14214324951172
 },
 {
  "State": "اصفهان",
  "City": "برزك",
  "lat": 33.778316497802734,
  "lon": 51.23015213012695
 },
 {
  "State": "اصفهان",
  "City": "برف انبار",
  "lat": 32.995872497558594,
  "lon": 50.19388198852539
 },
 {
  "State": "اصفهان",
  "City": "بوئين ومياندشت",
  "lat": 33.0804443359375,
  "lon": 50.15873336791992
 },
 {
  "State": "اصفهان",
  "City": "بهاران شهر",
  "lat": 32.51564407348633,
  "lon": 51.54144287109375
 },
 {
  "State": "اصفهان",
  "City": "بهارستان",
  "lat": 32.48651123046875,
  "lon": 51.77891159057617
 },
 {
  "State": "اصفهان",
  "City": "پيربكران",
  "lat": 32.465576171875,
  "lon": 51.55596160888672
 },
 {
  "State": "اصفهان",
  "City": "تودشك",
  "lat": 32.728267669677734,
  "lon": 52.679115295410156
 },
 {
  "State": "اصفهان",
  "City": "تيران",
  "lat": 32.704402923583984,
  "lon": 51.15317916870117
 },
 {
  "State": "اصفهان",
  "City": "جندق",
  "lat": 34.04131317138672,
  "lon": 54.414466857910156
 },
 {
  "State": "اصفهان",
  "City": "جوزدان",
  "lat": 32.55489730834961,
  "lon": 51.37186050415039
 },
 {
  "State": "اصفهان",
  "City": "جوشقان وكامو",
  "lat": 33.59946823120117,
  "lon": 51.22826385498047
 },
 {
  "State": "اصفهان",
  "City": "چادگان",
  "lat": 32.77155685424805,
  "lon": 50.62685775756836
 },
 {
  "State": "اصفهان",
  "City": "چرمهين",
  "lat": 32.33835983276367,
  "lon": 51.19548797607422
 },
 {
  "State": "اصفهان",
  "City": "چمگردان",
  "lat": 32.39350509643555,
  "lon": 51.335350036621094
 },
 {
  "State": "اصفهان",
  "City": "حبيب آباد",
  "lat": 32.8218879699707,
  "lon": 51.77587127685547
 },
 {
  "State": "اصفهان",
  "City": "حسن آباد",
  "lat": 32.136634826660156,
  "lon": 52.62354278564453
 },
 {
  "State": "اصفهان",
  "City": "حنا",
  "lat": 31.19758415222168,
  "lon": 51.72568130493164
 },
 {
  "State": "اصفهان",
  "City": "خالدآباد",
  "lat": 33.70183563232422,
  "lon": 51.98164367675781
 },
 {
  "State": "اصفهان",
  "City": "خميني شهر",
  "lat": 32.68333053588867,
  "lon": 51.53359603881836
 },
 {
  "State": "اصفهان",
  "City": "خوانسار",
  "lat": 33.214229583740234,
  "lon": 50.318870544433594
 },
 {
  "State": "اصفهان",
  "City": "خور",
  "lat": 33.77181625366211,
  "lon": 55.08384323120117
 },
 {
  "State": "اصفهان",
  "City": "خوراسگان",
  "lat": 32.65510177612305,
  "lon": 51.75954818725586
 },
 {
  "State": "اصفهان",
  "City": "خورزوق",
  "lat": 32.7767219543457,
  "lon": 51.649837493896484
 },
 {
  "State": "اصفهان",
  "City": "داران",
  "lat": 32.9862174987793,
  "lon": 50.40913772583008
 },
 {
  "State": "اصفهان",
  "City": "دامنه",
  "lat": 33.01579284667969,
  "lon": 50.487770080566406
 },
 {
  "State": "اصفهان",
  "City": "درچه پياز",
  "lat": 32.6044807434082,
  "lon": 51.547706604003906
 },
 {
  "State": "اصفهان",
  "City": "دستگرد",
  "lat": 32.80204772949219,
  "lon": 51.665714263916016
 },
 {
  "State": "اصفهان",
  "City": "دولت آباد",
  "lat": 32.80472946166992,
  "lon": 51.69356155395508
 },
 {
  "State": "اصفهان",
  "City": "دهاقان",
  "lat": 31.933130264282227,
  "lon": 51.654178619384766
 },
 {
  "State": "اصفهان",
  "City": "دهق",
  "lat": 33.10338592529297,
  "lon": 50.95917510986328
 },
 {
  "State": "اصفهان",
  "City": "ديزيچه",
  "lat": 32.3779296875,
  "lon": 51.5041618347168
 },
 {
  "State": "اصفهان",
  "City": "رزوه",
  "lat": 32.83512878417969,
  "lon": 50.56934356689453
 },
 {
  "State": "اصفهان",
  "City": "رضوانشهر",
  "lat": 32.69974136352539,
  "lon": 51.1038818359375
 },
 {
  "State": "اصفهان",
  "City": "زاينده رود",
  "lat": 32.37821578979492,
  "lon": 51.27326202392578
 },
 {
  "State": "اصفهان",
  "City": "زرين شهر",
  "lat": 32.39413070678711,
  "lon": 51.385894775390625
 },
 {
  "State": "اصفهان",
  "City": "زواره",
  "lat": 33.44786071777344,
  "lon": 52.486663818359375
 },
 {
  "State": "اصفهان",
  "City": "زيباشهر",
  "lat": 32.379417419433594,
  "lon": 51.564823150634766
 },
 {
  "State": "اصفهان",
  "City": "سده لنجان",
  "lat": 32.37739181518555,
  "lon": 51.318904876708984
 },
 {
  "State": "اصفهان",
  "City": "سفيدشهر",
  "lat": 34.12306213378906,
  "lon": 51.35150146484375
 },
 {
  "State": "اصفهان",
  "City": "سگزي",
  "lat": 32.66856384277344,
  "lon": 52.13046646118164
 },
 {
  "State": "اصفهان",
  "City": "سميرم",
  "lat": 31.414552688598633,
  "lon": 51.571868896484375
 },
 {
  "State": "اصفهان",
  "City": "شاپورآباد",
  "lat": 32.845420837402344,
  "lon": 51.74332046508789
 },
 {
  "State": "اصفهان",
  "City": "شاهين شهر",
  "lat": 32.86431884765625,
  "lon": 51.5546760559082
 },
 {
  "State": "اصفهان",
  "City": "شهرضا",
  "lat": 31.976659774780273,
  "lon": 51.84942626953125
 },
 {
  "State": "اصفهان",
  "City": "طالخونچه",
  "lat": 32.2620849609375,
  "lon": 51.56427764892578
 },
 {
  "State": "اصفهان",
  "City": "عسگران",
  "lat": 32.863525390625,
  "lon": 50.85219955444336
 },
 {
  "State": "اصفهان",
  "City": "علويچه",
  "lat": 33.05480194091797,
  "lon": 51.081459045410156
 },
 {
  "State": "اصفهان",
  "City": "فرخي",
  "lat": 33.844581604003906,
  "lon": 54.94688034057617
 },
 {
  "State": "اصفهان",
  "City": "فريدونشهر",
  "lat": 32.93998718261719,
  "lon": 50.13938522338867
 },
 {
  "State": "اصفهان",
  "City": "فلاورجان",
  "lat": 32.55626678466797,
  "lon": 51.506290435791016
 },
 {
  "State": "اصفهان",
  "City": "فولادشهر",
  "lat": 32.489532470703125,
  "lon": 51.40736770629883
 },
 {
  "State": "اصفهان",
  "City": "قمصر",
  "lat": 33.752010345458984,
  "lon": 51.43064880371094
 },
 {
  "State": "اصفهان",
  "City": "قهجاورستان",
  "lat": 32.7031364440918,
  "lon": 51.83500671386719
 },
 {
  "State": "اصفهان",
  "City": "قهدريجان",
  "lat": 32.57383728027344,
  "lon": 51.455848693847656
 },
 {
  "State": "اصفهان",
  "City": "كاشان",
  "lat": 33.983394622802734,
  "lon": 51.43208312988281
 },
 {
  "State": "اصفهان",
  "City": "كركوند",
  "lat": 32.34629440307617,
  "lon": 51.43723678588867
 },
 {
  "State": "اصفهان",
  "City": "كليشادوسودرجان",
  "lat": 32.54153823852539,
  "lon": 51.53589630126953
 },
 {
  "State": "اصفهان",
  "City": "كمشچه",
  "lat": 32.90576934814453,
  "lon": 51.80904006958008
 },
 {
  "State": "اصفهان",
  "City": "كمه",
  "lat": 31.061466217041016,
  "lon": 51.59358215332031
 },
 {
  "State": "اصفهان",
  "City": "كوشك",
  "lat": 32.640079498291016,
  "lon": 51.50010681152344
 },
 {
  "State": "اصفهان",
  "City": "كوهپايه",
  "lat": 32.715110778808594,
  "lon": 52.432518005371094
 },
 {
  "State": "اصفهان",
  "City": "كهريزسنگ",
  "lat": 32.62624740600586,
  "lon": 51.477115631103516
 },
 {
  "State": "اصفهان",
  "City": "گرگاب",
  "lat": 32.86576843261719,
  "lon": 51.597652435302734
 },
 {
  "State": "اصفهان",
  "City": "گزبرخوار",
  "lat": 32.80460739135742,
  "lon": 51.61882781982422
 },
 {
  "State": "اصفهان",
  "City": "گلپايگان",
  "lat": 33.450950622558594,
  "lon": 50.283363342285156
 },
 {
  "State": "اصفهان",
  "City": "گلدشت",
  "lat": 32.629905700683594,
  "lon": 51.442718505859375
 },
 {
  "State": "اصفهان",
  "City": "گلشن",
  "lat": 31.92922019958496,
  "lon": 51.752506256103516
 },
 {
  "State": "اصفهان",
  "City": "گلشهر",
  "lat": 33.505882263183594,
  "lon": 50.465614318847656
 },
 {
  "State": "اصفهان",
  "City": "گوگد",
  "lat": 33.473445892333984,
  "lon": 50.345314025878906
 },
 {
  "State": "اصفهان",
  "City": "لاي بيد",
  "lat": 33.45865249633789,
  "lon": 50.694149017333984
 },
 {
  "State": "اصفهان",
  "City": "مباركه",
  "lat": 32.341773986816406,
  "lon": 51.50068283081055
 },
 {
  "State": "اصفهان",
  "City": "محمدآباد",
  "lat": 32.319454193115234,
  "lon": 52.103912353515625
 },
 {
  "State": "اصفهان",
  "City": "مشكات",
  "lat": 34.17534637451172,
  "lon": 51.26825714111328
 },
 {
  "State": "اصفهان",
  "City": "منظريه",
  "lat": 31.94329071044922,
  "lon": 51.872127532958984
 },
 {
  "State": "اصفهان",
  "City": "مهاباد",
  "lat": 33.52765655517578,
  "lon": 52.21732711791992
 },
 {
  "State": "اصفهان",
  "City": "ميمه",
  "lat": 33.44674301147461,
  "lon": 51.170345306396484
 },
 {
  "State": "اصفهان",
  "City": "نائين",
  "lat": 32.86044692993164,
  "lon": 53.09561538696289
 },
 {
  "State": "اصفهان",
  "City": "نجف آباد",
  "lat": 32.631534576416016,
  "lon": 51.350589752197266
 },
 {
  "State": "اصفهان",
  "City": "نصرآباد",
  "lat": 32.27835464477539,
  "lon": 52.06196975708008
 },
 {
  "State": "اصفهان",
  "City": "نطنز",
  "lat": 33.50468063354492,
  "lon": 51.919071197509766
 },
 {
  "State": "اصفهان",
  "City": "نوش آباد",
  "lat": 34.08082580566406,
  "lon": 51.43794631958008
 },
 {
  "State": "اصفهان",
  "City": "نياسر",
  "lat": 33.972450256347656,
  "lon": 51.14891052246094
 },
 {
  "State": "اصفهان",
  "City": "نيك آباد",
  "lat": 32.30278396606445,
  "lon": 52.20520782470703
 },
 {
  "State": "اصفهان",
  "City": "ورزنه",
  "lat": 32.420318603515625,
  "lon": 52.650611877441406
 },
 {
  "State": "اصفهان",
  "City": "ورنامخواست",
  "lat": 32.354957580566406,
  "lon": 51.38011932373047
 },
 {
  "State": "اصفهان",
  "City": "وزوان",
  "lat": 33.419891357421875,
  "lon": 51.1833381652832
 },
 {
  "State": "اصفهان",
  "City": "ونك",
  "lat": 31.528242111206055,
  "lon": 51.326473236083984
 },
 {
  "State": "اصفهان",
  "City": "هرند",
  "lat": 32.56386184692383,
  "lon": 52.43729019165039
 },
 {
  "State": "البرز",
  "City": "اشتهارد",
  "lat": 35.72459030151367,
  "lon": 50.36147689819336
 },
 {
  "State": "البرز",
  "City": "آسارا",
  "lat": 36.03144836425781,
  "lon": 51.17387390136719
 },
 {
  "State": "البرز",
  "City": "تنكمان",
  "lat": 35.889408111572266,
  "lon": 50.61488342285156
 },
 {
  "State": "البرز",
  "City": "چهارباغ",
  "lat": 35.83815383911133,
  "lon": 50.84798049926758
 },
 {
  "State": "البرز",
  "City": "سيف آباد",
  "lat": 35.91147994995117,
  "lon": 50.770538330078125
 },
 {
  "State": "البرز",
  "City": "شهرجديدهشتگرد",
  "lat": 35.98429489135742,
  "lon": 50.74120330810547
 },
 {
  "State": "البرز",
  "City": "طالقان",
  "lat": 36.172996520996094,
  "lon": 50.768489837646484
 },
 {
  "State": "البرز",
  "City": "كرج",
  "lat": 35.7247200012207,
  "lon": 50.95276641845703
 },
 {
  "State": "البرز",
  "City": "كمال شهر",
  "lat": 35.846038818359375,
  "lon": 50.88404846191406
 },
 {
  "State": "البرز",
  "City": "كوهسار",
  "lat": 35.95566940307617,
  "lon": 50.79353332519531
 },
 {
  "State": "البرز",
  "City": "گرمدره",
  "lat": 35.74454116821289,
  "lon": 51.06885528564453
 },
 {
  "State": "البرز",
  "City": "ماهدشت",
  "lat": 35.727561950683594,
  "lon": 50.806129455566406
 },
 {
  "State": "البرز",
  "City": "محمدشهر",
  "lat": 35.73664474487305,
  "lon": 50.89955139160156
 },
 {
  "State": "البرز",
  "City": "مشكين دشت",
  "lat": 35.74838638305664,
  "lon": 50.94078063964844
 },
 {
  "State": "البرز",
  "City": "نظرآباد",
  "lat": 35.95195007324219,
  "lon": 50.60453414916992
 },
 {
  "State": "البرز",
  "City": "هشتگرد",
  "lat": 35.95068359375,
  "lon": 50.683860778808594
 },
 {
  "State": "ايلام",
  "City": "اركواز",
  "lat": 33.387107849121094,
  "lon": 46.59772491455078
 },
 {
  "State": "ايلام",
  "City": "ايلام",
  "lat": 33.57505416870117,
  "lon": 46.41641616821289
 },
 {
  "State": "ايلام",
  "City": "ايوان",
  "lat": 33.82935333251953,
  "lon": 46.306129455566406
 },
 {
  "State": "ايلام",
  "City": "آبدانان",
  "lat": 32.98835372924805,
  "lon": 47.424095153808594
 },
 {
  "State": "ايلام",
  "City": "آسمان آباد",
  "lat": 33.84938430786133,
  "lon": 46.46562576293945
 },
 {
  "State": "ايلام",
  "City": "بدره",
  "lat": 33.30717086791992,
  "lon": 47.038330078125
 },
 {
  "State": "ايلام",
  "City": "پهله",
  "lat": 33.01145553588867,
  "lon": 46.8835563659668
 },
 {
  "State": "ايلام",
  "City": "توحيد",
  "lat": 33.72682189941406,
  "lon": 47.068294525146484
 },
 {
  "State": "ايلام",
  "City": "چوار",
  "lat": 33.69190979003906,
  "lon": 46.29715347290039
 },
 {
  "State": "ايلام",
  "City": "دره شهر",
  "lat": 33.14948654174805,
  "lon": 47.38166046142578
 },
 {
  "State": "ايلام",
  "City": "دلگشا",
  "lat": 33.40571212768555,
  "lon": 46.59428787231445
 },
 {
  "State": "ايلام",
  "City": "دهلران",
  "lat": 32.69020080566406,
  "lon": 47.27085494995117
 },
 {
  "State": "ايلام",
  "City": "زرنه",
  "lat": 33.926212310791016,
  "lon": 46.18672180175781
 },
 {
  "State": "ايلام",
  "City": "سراب باغ",
  "lat": 32.896671295166016,
  "lon": 47.5726318359375
 },
 {
  "State": "ايلام",
  "City": "سرابله",
  "lat": 33.768226623535156,
  "lon": 46.56136703491211
 },
 {
  "State": "ايلام",
  "City": "صالح آباد",
  "lat": 33.468772888183594,
  "lon": 46.19106674194336
 },
 {
  "State": "ايلام",
  "City": "لومار",
  "lat": 33.56718444824219,
  "lon": 46.81135559082031
 },
 {
  "State": "ايلام",
  "City": "مورموري",
  "lat": 32.726318359375,
  "lon": 47.67509841918945
 },
 {
  "State": "ايلام",
  "City": "موسيان",
  "lat": 32.52018356323242,
  "lon": 47.377071380615234
 },
 {
  "State": "ايلام",
  "City": "مهران",
  "lat": 33.12202835083008,
  "lon": 46.172889709472656
 },
 {
  "State": "ايلام",
  "City": "ميمه ",
  "lat": 33.22662353515625,
  "lon": 46.91864776611328
 },
 {
  "State": "آذربايجان شرقي",
  "City": "اسكو",
  "lat": 37.917781829833984,
  "lon": 46.12446975708008
 },
 {
  "State": "آذربايجان شرقي",
  "City": "اهر",
  "lat": 38.47453308105469,
  "lon": 47.07098388671875
 },
 {
  "State": "آذربايجان شرقي",
  "City": "ايلخچي",
  "lat": 37.93674087524414,
  "lon": 45.98198699951172
 },
 {
  "State": "آذربايجان شرقي",
  "City": "آبش احمد",
  "lat": 39.040138244628906,
  "lon": 47.31736373901367
 },
 {
  "State": "آذربايجان شرقي",
  "City": "آذرشهر",
  "lat": 37.766178131103516,
  "lon": 45.97644805908203
 },
 {
  "State": "آذربايجان شرقي",
  "City": "آقكند",
  "lat": 37.25337219238281,
  "lon": 48.06547164916992
 },
 {
  "State": "آذربايجان شرقي",
  "City": "باسمنج",
  "lat": 37.994354248046875,
  "lon": 46.47474670410156
 },
 {
  "State": "آذربايجان شرقي",
  "City": "بخشايش",
  "lat": 38.13185119628906,
  "lon": 46.94746780395508
 },
 {
  "State": "آذربايجان شرقي",
  "City": "بستان آباد",
  "lat": 37.83699417114258,
  "lon": 46.830963134765625
 },
 {
  "State": "آذربايجان شرقي",
  "City": "بناب",
  "lat": 37.34558868408203,
  "lon": 46.066200256347656
 },
 {
  "State": "آذربايجان شرقي",
  "City": "بناب جديد",
  "lat": 38.42330551147461,
  "lon": 45.90700912475586
 },
 {
  "State": "آذربايجان شرقي",
  "City": "تبريز",
  "lat": 38.07929229736328,
  "lon": 46.28915023803711
 },
 {
  "State": "آذربايجان شرقي",
  "City": "ترك",
  "lat": 37.60768508911133,
  "lon": 47.7681884765625
 },
 {
  "State": "آذربايجان شرقي",
  "City": "تركمانچاي",
  "lat": 37.580440521240234,
  "lon": 47.39145278930664
 },
 {
  "State": "آذربايجان شرقي",
  "City": "تسوج",
  "lat": 38.310550689697266,
  "lon": 45.37041473388672
 },
 {
  "State": "آذربايجان شرقي",
  "City": "تيكمه داش",
  "lat": 37.728389739990234,
  "lon": 46.945804595947266
 },
 {
  "State": "آذربايجان شرقي",
  "City": "جلفا",
  "lat": 38.93476486206055,
  "lon": 45.63887023925781
 },
 {
  "State": "آذربايجان شرقي",
  "City": "خاروانا",
  "lat": 38.68300247192383,
  "lon": 46.16864013671875
 },
 {
  "State": "آذربايجان شرقي",
  "City": "خامنه",
  "lat": 38.193939208984375,
  "lon": 45.632957458496094
 },
 {
  "State": "آذربايجان شرقي",
  "City": "خراجو",
  "lat": 37.311649322509766,
  "lon": 46.531532287597656
 },
 {
  "State": "آذربايجان شرقي",
  "City": "خسروشهر",
  "lat": 37.95437240600586,
  "lon": 46.05068588256836
 },
 {
  "State": "آذربايجان شرقي",
  "City": "خمارلو",
  "lat": 39.14801025390625,
  "lon": 47.03475570678711
 },
 {
  "State": "آذربايجان شرقي",
  "City": "خواجه",
  "lat": 38.154693603515625,
  "lon": 46.586910247802734
 },
 {
  "State": "آذربايجان شرقي",
  "City": "دوزدوزان",
  "lat": 37.94933319091797,
  "lon": 47.119964599609375
 },
 {
  "State": "آذربايجان شرقي",
  "City": "زرنق",
  "lat": 38.09184265136719,
  "lon": 47.081703186035156
 },
 {
  "State": "آذربايجان شرقي",
  "City": "زنوز",
  "lat": 38.58799362182617,
  "lon": 45.834388732910156
 },
 {
  "State": "آذربايجان شرقي",
  "City": "سراب",
  "lat": 37.94099807739258,
  "lon": 47.53533172607422
 },
 {
  "State": "آذربايجان شرقي",
  "City": "سردرود",
  "lat": 38.03178024291992,
  "lon": 46.14791488647461
 },
 {
  "State": "آذربايجان شرقي",
  "City": "سيس",
  "lat": 38.19407653808594,
  "lon": 45.8140869140625
 },
 {
  "State": "آذربايجان شرقي",
  "City": "سيه رود",
  "lat": 38.8695182800293,
  "lon": 46.001705169677734
 },
 {
  "State": "آذربايجان شرقي",
  "City": "شبستر",
  "lat": 38.18050003051758,
  "lon": 45.701393127441406
 },
 {
  "State": "آذربايجان شرقي",
  "City": "شربيان",
  "lat": 37.881553649902344,
  "lon": 47.09996032714844
 },
 {
  "State": "آذربايجان شرقي",
  "City": "شرفخانه",
  "lat": 38.17783737182617,
  "lon": 45.490257263183594
 },
 {
  "State": "آذربايجان شرقي",
  "City": "شندآباد",
  "lat": 38.14213562011719,
  "lon": 45.622520446777344
 },
 {
  "State": "آذربايجان شرقي",
  "City": "شهرجديدسهند",
  "lat": 37.945091247558594,
  "lon": 46.121009826660156
 },
 {
  "State": "آذربايجان شرقي",
  "City": "صوفيان",
  "lat": 38.278621673583984,
  "lon": 45.98161697387695
 },
 {
  "State": "آذربايجان شرقي",
  "City": "عجب شير",
  "lat": 37.47710037231445,
  "lon": 45.894832611083984
 },
 {
  "State": "آذربايجان شرقي",
  "City": "قره آغاج",
  "lat": 37.12910079956055,
  "lon": 46.97224044799805
 },
 {
  "State": "آذربايجان شرقي",
  "City": "كشكسراي",
  "lat": 38.460052490234375,
  "lon": 45.56893539428711
 },
 {
  "State": "آذربايجان شرقي",
  "City": "كلوانق",
  "lat": 38.10124969482422,
  "lon": 46.99319076538086
 },
 {
  "State": "آذربايجان شرقي",
  "City": "كليبر",
  "lat": 38.86484909057617,
  "lon": 47.0407829284668
 },
 {
  "State": "آذربايجان شرقي",
  "City": "كوزه كنان",
  "lat": 38.18380355834961,
  "lon": 45.577491760253906
 },
 {
  "State": "آذربايجان شرقي",
  "City": "گوگان",
  "lat": 37.769134521484375,
  "lon": 45.904571533203125
 },
 {
  "State": "آذربايجان شرقي",
  "City": "ليلان",
  "lat": 37.00645065307617,
  "lon": 46.20556640625
 },
 {
  "State": "آذربايجان شرقي",
  "City": "مراغه",
  "lat": 37.38603591918945,
  "lon": 46.233604431152344
 },
 {
  "State": "آذربايجان شرقي",
  "City": "مرند",
  "lat": 38.43193817138672,
  "lon": 45.77204513549805
 },
 {
  "State": "آذربايجان شرقي",
  "City": "ملكان",
  "lat": 37.14253234863281,
  "lon": 46.10037612915039
 },
 {
  "State": "آذربايجان شرقي",
  "City": "ممقان",
  "lat": 37.8386344909668,
  "lon": 45.9715576171875
 },
 {
  "State": "آذربايجان شرقي",
  "City": "مهربان",
  "lat": 38.08159255981445,
  "lon": 47.13167190551758
 },
 {
  "State": "آذربايجان شرقي",
  "City": "ميانه",
  "lat": 37.42070770263672,
  "lon": 47.71635055541992
 },
 {
  "State": "آذربايجان شرقي",
  "City": "نظركهريزي",
  "lat": 37.347312927246094,
  "lon": 46.7620849609375
 },
 {
  "State": "آذربايجان شرقي",
  "City": "وايقان",
  "lat": 38.13084030151367,
  "lon": 45.71278381347656
 },
 {
  "State": "آذربايجان شرقي",
  "City": "ورزقان",
  "lat": 38.508705139160156,
  "lon": 46.65034484863281
 },
 {
  "State": "آذربايجان شرقي",
  "City": "هاديشهر",
  "lat": 38.83842849731445,
  "lon": 45.662906646728516
 },
 {
  "State": "آذربايجان شرقي",
  "City": "هريس",
  "lat": 38.2496223449707,
  "lon": 47.11711883544922
 },
 {
  "State": "آذربايجان شرقي",
  "City": "هشترود",
  "lat": 37.47077560424805,
  "lon": 47.059669494628906
 },
 {
  "State": "آذربايجان شرقي",
  "City": "هوراند",
  "lat": 38.8571891784668,
  "lon": 47.36512756347656
 },
 {
  "State": "آذربايجان شرقي",
  "City": "يامچي",
  "lat": 38.52165985107422,
  "lon": 45.6402587890625
 },
 {
  "State": "آذربايجان غربي",
  "City": "اروميه",
  "lat": 37.5395393371582,
  "lon": 45.05765151977539
 },
 {
  "State": "آذربايجان غربي",
  "City": "اشنويه",
  "lat": 37.04021072387695,
  "lon": 45.10004425048828
 },
 {
  "State": "آذربايجان غربي",
  "City": "ايواوغلي",
  "lat": 38.71865463256836,
  "lon": 45.21141052246094
 },
 {
  "State": "آذربايجان غربي",
  "City": "آواجيق",
  "lat": 39.33173751831055,
  "lon": 44.15311050415039
 },
 {
  "State": "آذربايجان غربي",
  "City": "باروق",
  "lat": 36.95096969604492,
  "lon": 46.319976806640625
 },
 {
  "State": "آذربايجان غربي",
  "City": "بازرگان",
  "lat": 39.39423751831055,
  "lon": 44.386688232421875
 },
 {
  "State": "آذربايجان غربي",
  "City": "بوكان",
  "lat": 36.50798797607422,
  "lon": 46.206661224365234
 },
 {
  "State": "آذربايجان غربي",
  "City": "پلدشت",
  "lat": 39.34785079956055,
  "lon": 45.0683708190918
 },
 {
  "State": "آذربايجان غربي",
  "City": "پيرانشهر",
  "lat": 36.693939208984375,
  "lon": 45.14119338989258
 },
 {
  "State": "آذربايجان غربي",
  "City": "تازه شهر",
  "lat": 38.17576599121094,
  "lon": 44.69081115722656
 },
 {
  "State": "آذربايجان غربي",
  "City": "تكاب",
  "lat": 36.40422058105469,
  "lon": 47.11016082763672
 },
 {
  "State": "آذربايجان غربي",
  "City": "چهاربرج",
  "lat": 37.125770568847656,
  "lon": 45.975563049316406
 },
 {
  "State": "آذربايجان غربي",
  "City": "خليفان",
  "lat": 36.50708770751953,
  "lon": 45.79647445678711
 },
 {
  "State": "آذربايجان غربي",
  "City": "خوي",
  "lat": 38.520294189453125,
  "lon": 44.954654693603516
 },
 {
  "State": "آذربايجان غربي",
  "City": "ديزج ديز",
  "lat": 38.46089553833008,
  "lon": 45.02344512939453
 },
 {
  "State": "آذربايجان غربي",
  "City": "ربط",
  "lat": 36.211273193359375,
  "lon": 45.55174255371094
 },
 {
  "State": "آذربايجان غربي",
  "City": "سردشت",
  "lat": 36.153995513916016,
  "lon": 45.4791145324707
 },
 {
  "State": "آذربايجان غربي",
  "City": "سرو",
  "lat": 37.72273254394531,
  "lon": 44.650428771972656
 },
 {
  "State": "آذربايجان غربي",
  "City": "سلماس",
  "lat": 38.19873809814453,
  "lon": 44.766029357910156
 },
 {
  "State": "آذربايجان غربي",
  "City": "سيلوانه",
  "lat": 37.422428131103516,
  "lon": 44.851322174072266
 },
 {
  "State": "آذربايجان غربي",
  "City": "سيمينه",
  "lat": 36.7256965637207,
  "lon": 46.15306854248047
 },
 {
  "State": "آذربايجان غربي",
  "City": "سيه چشمه",
  "lat": 39.06917953491211,
  "lon": 44.38745880126953
 },
 {
  "State": "آذربايجان غربي",
  "City": "شاهين دژ",
  "lat": 36.67921447753906,
  "lon": 46.566463470458984
 },
 {
  "State": "آذربايجان غربي",
  "City": "شوط",
  "lat": 39.21812438964844,
  "lon": 44.771121978759766
 },
 {
  "State": "آذربايجان غربي",
  "City": "فيرورق",
  "lat": 38.577781677246094,
  "lon": 44.83671569824219
 },
 {
  "State": "آذربايجان غربي",
  "City": "قره ضياءالدين",
  "lat": 38.88854217529297,
  "lon": 45.02517318725586
 },
 {
  "State": "آذربايجان غربي",
  "City": "قطور",
  "lat": 38.47347640991211,
  "lon": 44.40570068359375
 },
 {
  "State": "آذربايجان غربي",
  "City": "قوشچي",
  "lat": 37.991207122802734,
  "lon": 45.03787612915039
 },
 {
  "State": "آذربايجان غربي",
  "City": "كشاورز",
  "lat": 36.834747314453125,
  "lon": 46.35843276977539
 },
 {
  "State": "آذربايجان غربي",
  "City": "گردكشانه",
  "lat": 36.8118896484375,
  "lon": 45.2739372253418
 },
 {
  "State": "آذربايجان غربي",
  "City": "ماكو",
  "lat": 39.292152404785156,
  "lon": 44.492435455322266
 },
 {
  "State": "آذربايجان غربي",
  "City": "محمديار",
  "lat": 36.98139953613281,
  "lon": 45.52214050292969
 },
 {
  "State": "آذربايجان غربي",
  "City": "محمودآباد",
  "lat": 36.711875915527344,
  "lon": 46.51900863647461
 },
 {
  "State": "آذربايجان غربي",
  "City": "مهاباد ",
  "lat": 36.77022171020508,
  "lon": 45.72841262817383
 },
 {
  "State": "آذربايجان غربي",
  "City": "مياندوآب",
  "lat": 36.964962005615234,
  "lon": 46.10594940185547
 },
 {
  "State": "آذربايجان غربي",
  "City": "ميرآباد",
  "lat": 36.40308380126953,
  "lon": 45.3748664855957
 },
 {
  "State": "آذربايجان غربي",
  "City": "نالوس",
  "lat": 36.9845085144043,
  "lon": 45.14314270019531
 },
 {
  "State": "آذربايجان غربي",
  "City": "نقده",
  "lat": 36.95338439941406,
  "lon": 45.3889045715332
 },
 {
  "State": "آذربايجان غربي",
  "City": "نوشين",
  "lat": 37.734336853027344,
  "lon": 45.05229187011719
 },
 {
  "State": "بوشهر",
  "City": "امام حسن",
  "lat": 29.83965492248535,
  "lon": 50.263885498046875
 },
 {
  "State": "بوشهر",
  "City": "انارستان",
  "lat": 28.032548904418945,
  "lon": 52.06646728515625
 },
 {
  "State": "بوشهر",
  "City": "اهرم",
  "lat": 28.88422393798828,
  "lon": 51.27869415283203
 },
 {
  "State": "بوشهر",
  "City": "آبپخش",
  "lat": 29.35378646850586,
  "lon": 51.06462097167969
 },
 {
  "State": "بوشهر",
  "City": "آبدان",
  "lat": 28.073928833007812,
  "lon": 51.77064514160156
 },
 {
  "State": "بوشهر",
  "City": "برازجان",
  "lat": 29.27071189880371,
  "lon": 51.21670913696289
 },
 {
  "State": "بوشهر",
  "City": "بردخون",
  "lat": 28.063852310180664,
  "lon": 51.47783660888672
 },
 {
  "State": "بوشهر",
  "City": "بردستان",
  "lat": 27.871482849121094,
  "lon": 51.95964431762695
 },
 {
  "State": "بوشهر",
  "City": "بندردير",
  "lat": 27.839059829711914,
  "lon": 51.93501281738281
 },
 {
  "State": "بوشهر",
  "City": "بندرديلم",
  "lat": 30.052282333374023,
  "lon": 50.16318893432617
 },
 {
  "State": "بوشهر",
  "City": "بندرريگ",
  "lat": 29.487905502319336,
  "lon": 50.6264762878418
 },
 {
  "State": "بوشهر",
  "City": "بندركنگان",
  "lat": 27.8377628326416,
  "lon": 52.06179428100586
 },
 {
  "State": "بوشهر",
  "City": "بندرگناوه",
  "lat": 29.573654174804688,
  "lon": 50.5185432434082
 },
 {
  "State": "بوشهر",
  "City": "بنك",
  "lat": 27.871688842773438,
  "lon": 52.02739715576172
 },
 {
  "State": "بوشهر",
  "City": "بوشهر",
  "lat": 28.92142677307129,
  "lon": 50.837669372558594
 },
 {
  "State": "بوشهر",
  "City": "تنگ ارم",
  "lat": 29.153690338134766,
  "lon": 51.52742004394531
 },
 {
  "State": "بوشهر",
  "City": "جم",
  "lat": 27.824352264404297,
  "lon": 52.34095001220703
 },
 {
  "State": "بوشهر",
  "City": "چغادك",
  "lat": 28.987571716308594,
  "lon": 51.02501678466797
 },
 {
  "State": "بوشهر",
  "City": "خارك",
  "lat": 29.238052368164062,
  "lon": 50.319305419921875
 },
 {
  "State": "بوشهر",
  "City": "خورموج",
  "lat": 28.627182006835938,
  "lon": 51.38252258300781
 },
 {
  "State": "بوشهر",
  "City": "دالكي",
  "lat": 29.429241180419922,
  "lon": 51.2911491394043
 },
 {
  "State": "بوشهر",
  "City": "دلوار",
  "lat": 28.745994567871094,
  "lon": 51.07018280029297
 },
 {
  "State": "بوشهر",
  "City": "ريز",
  "lat": 28.05557632446289,
  "lon": 52.07707977294922
 },
 {
  "State": "بوشهر",
  "City": "سعدآباد",
  "lat": 29.38419532775879,
  "lon": 51.116641998291016
 },
 {
  "State": "بوشهر",
  "City": "سيراف",
  "lat": 27.66817283630371,
  "lon": 52.33884811401367
 },
 {
  "State": "بوشهر",
  "City": "شبانكاره",
  "lat": 29.472543716430664,
  "lon": 50.99406433105469
 },
 {
  "State": "بوشهر",
  "City": "شنبه",
  "lat": 28.394981384277344,
  "lon": 51.76403045654297
 },
 {
  "State": "بوشهر",
  "City": "عسلويه",
  "lat": 27.47576141357422,
  "lon": 52.60810852050781
 },
 {
  "State": "بوشهر",
  "City": "كاكي",
  "lat": 28.3402099609375,
  "lon": 51.52267837524414
 },
 {
  "State": "بوشهر",
  "City": "كلمه",
  "lat": 28.943517684936523,
  "lon": 51.45933151245117
 },
 {
  "State": "بوشهر",
  "City": "نخل تقي",
  "lat": 27.49701499938965,
  "lon": 52.583988189697266
 },
 {
  "State": "بوشهر",
  "City": "وحدتيه",
  "lat": 29.48295783996582,
  "lon": 51.23637771606445
 },
 {
  "State": "تهران",
  "City": "ارجمند",
  "lat": 35.81401824951172,
  "lon": 52.513824462890625
 },
 {
  "State": "تهران",
  "City": "اسلامشهر",
  "lat": 35.50104522705078,
  "lon": 51.225547790527344
 },
 {
  "State": "تهران",
  "City": "انديشه",
  "lat": 35.68739318847656,
  "lon": 51.02239227294922
 },
 {
  "State": "تهران",
  "City": "آبسرد",
  "lat": 35.621707916259766,
  "lon": 52.15012741088867
 },
 {
  "State": "تهران",
  "City": "آبعلي",
  "lat": 35.75962448120117,
  "lon": 51.96295928955078
 },
 {
  "State": "تهران",
  "City": "باغستان",
  "lat": 35.634552001953125,
  "lon": 51.13315200805664
 },
 {
  "State": "تهران",
  "City": "باقرشهر",
  "lat": 35.5262451171875,
  "lon": 51.40306091308594
 },
 {
  "State": "تهران",
  "City": "بومهن",
  "lat": 35.727848052978516,
  "lon": 51.868831634521484
 },
 {
  "State": "تهران",
  "City": "پاكدشت",
  "lat": 35.47431182861328,
  "lon": 51.67570114135742
 },
 {
  "State": "تهران",
  "City": "پرديس",
  "lat": 35.742347717285156,
  "lon": 51.821407318115234
 },
 {
  "State": "تهران",
  "City": "پيشوا",
  "lat": 35.3055534362793,
  "lon": 51.72243881225586
 },
 {
  "State": "تهران",
  "City": "تجريش",
  "lat": 35.81037902832031,
  "lon": 51.464759826660156
 },
 {
  "State": "تهران",
  "City": "تهران",
  "lat": 35.70290756225586,
  "lon": 51.34975814819336
 },
 {
  "State": "تهران",
  "City": "جوادآباد",
  "lat": 35.21086120605469,
  "lon": 51.67318344116211
 },
 {
  "State": "تهران",
  "City": "چهاردانگه",
  "lat": 35.59637451171875,
  "lon": 51.3045654296875
 },
 {
  "State": "تهران",
  "City": "حسن آباد ",
  "lat": 35.36765670776367,
  "lon": 51.24298858642578
 },
 {
  "State": "تهران",
  "City": "دماوند",
  "lat": 35.69395446777344,
  "lon": 52.047218322753906
 },
 {
  "State": "تهران",
  "City": "رباط كريم",
  "lat": 35.48320007324219,
  "lon": 51.07991409301758
 },
 {
  "State": "تهران",
  "City": "رودهن",
  "lat": 35.73760986328125,
  "lon": 51.910423278808594
 },
 {
  "State": "تهران",
  "City": "ري",
  "lat": 35.60319137573242,
  "lon": 51.4387092590332
 },
 {
  "State": "تهران",
  "City": "شاهدشهر",
  "lat": 35.571861267089844,
  "lon": 51.08738327026367
 },
 {
  "State": "تهران",
  "City": "شريف آباد",
  "lat": 35.422340393066406,
  "lon": 51.785919189453125
 },
 {
  "State": "تهران",
  "City": "شهريار",
  "lat": 35.63301467895508,
  "lon": 51.0597038269043
 },
 {
  "State": "تهران",
  "City": "صالح آباد ",
  "lat": 35.504940032958984,
  "lon": 51.18913650512695
 },
 {
  "State": "تهران",
  "City": "صباشهر",
  "lat": 35.578758239746094,
  "lon": 51.11426544189453
 },
 {
  "State": "تهران",
  "City": "صفادشت",
  "lat": 35.69135284423828,
  "lon": 50.840694427490234
 },
 {
  "State": "تهران",
  "City": "فردوسيه",
  "lat": 35.6019287109375,
  "lon": 51.063209533691406
 },
 {
  "State": "تهران",
  "City": "فرون آباد",
  "lat": 35.505271911621094,
  "lon": 51.62708282470703
 },
 {
  "State": "تهران",
  "City": "فشم",
  "lat": 35.9017333984375,
  "lon": 51.51983642578125
 },
 {
  "State": "تهران",
  "City": "فيروزكوه",
  "lat": 35.75455856323242,
  "lon": 52.77387237548828
 },
 {
  "State": "تهران",
  "City": "قدس",
  "lat": 35.71248245239258,
  "lon": 51.112892150878906
 },
 {
  "State": "تهران",
  "City": "قرچك",
  "lat": 35.415794372558594,
  "lon": 51.586673736572266
 },
 {
  "State": "تهران",
  "City": "كهريزك",
  "lat": 35.5238151550293,
  "lon": 51.3551025390625
 },
 {
  "State": "تهران",
  "City": "كيلان",
  "lat": 35.556148529052734,
  "lon": 52.162872314453125
 },
 {
  "State": "تهران",
  "City": "گلستان",
  "lat": 35.51601028442383,
  "lon": 51.16218948364258
 },
 {
  "State": "تهران",
  "City": "لواسان",
  "lat": 35.819400787353516,
  "lon": 51.637290954589844
 },
 {
  "State": "تهران",
  "City": "ملارد",
  "lat": 35.654701232910156,
  "lon": 50.97917556762695
 },
 {
  "State": "تهران",
  "City": "نسيم شهر",
  "lat": 35.55868911743164,
  "lon": 51.169490814208984
 },
 {
  "State": "تهران",
  "City": "نصيرآباد",
  "lat": 35.49018859863281,
  "lon": 51.14104461669922
 },
 {
  "State": "تهران",
  "City": "وحيديه",
  "lat": 35.605220794677734,
  "lon": 51.02610397338867
 },
 {
  "State": "تهران",
  "City": "ورامين",
  "lat": 35.32939529418945,
  "lon": 51.63468551635742
 },
 {
  "State": "چهارمحال وبختياري",
  "City": "اردل",
  "lat": 31.997865676879883,
  "lon": 50.66145324707031
 },
 {
  "State": "چهارمحال وبختياري",
  "City": "آلوني",
  "lat": 31.552204132080078,
  "lon": 51.05701446533203
 },
 {
  "State": "چهارمحال وبختياري",
  "City": "باباحيدر",
  "lat": 32.32894515991211,
  "lon": 50.468875885009766
 },
 {
  "State": "چهارمحال وبختياري",
  "City": "بروجن",
  "lat": 31.966794967651367,
  "lon": 51.289424896240234
 },
 {
  "State": "چهارمحال وبختياري",
  "City": "بلداجي",
  "lat": 31.937042236328125,
  "lon": 51.0526123046875
 },
 {
  "State": "چهارمحال وبختياري",
  "City": "بن",
  "lat": 32.542781829833984,
  "lon": 50.74620819091797
 },
 {
  "State": "چهارمحال وبختياري",
  "City": "جونقان",
  "lat": 32.1429557800293,
  "lon": 50.68659973144531
 },
 {
  "State": "چهارمحال وبختياري",
  "City": "چلگرد",
  "lat": 32.46727752685547,
  "lon": 50.130043029785156
 },
 {
  "State": "چهارمحال وبختياري",
  "City": "سامان",
  "lat": 32.451576232910156,
  "lon": 50.910457611083984
 },
 {
  "State": "چهارمحال وبختياري",
  "City": "سفيددشت",
  "lat": 32.1297721862793,
  "lon": 51.18287658691406
 },
 {
  "State": "چهارمحال وبختياري",
  "City": "سودجان",
  "lat": 32.52112579345703,
  "lon": 50.40035629272461
 },
 {
  "State": "چهارمحال وبختياري",
  "City": "سورشجان",
  "lat": 32.31581497192383,
  "lon": 50.67885208129883
 },
 {
  "State": "چهارمحال وبختياري",
  "City": "شلمزار",
  "lat": 32.0466194152832,
  "lon": 50.817047119140625
 },
 {
  "State": "چهارمحال وبختياري",
  "City": "شهركرد",
  "lat": 32.31618118286133,
  "lon": 50.85820388793945
 },
 {
  "State": "چهارمحال وبختياري",
  "City": "طاقانك",
  "lat": 32.22312545776367,
  "lon": 50.83694076538086
 },
 {
  "State": "چهارمحال وبختياري",
  "City": "فارسان",
  "lat": 32.25729751586914,
  "lon": 50.565677642822266
 },
 {
  "State": "چهارمحال وبختياري",
  "City": "فرادنبه",
  "lat": 32.00857162475586,
  "lon": 51.21474838256836
 },
 {
  "State": "چهارمحال وبختياري",
  "City": "فرخ شهر",
  "lat": 32.273983001708984,
  "lon": 50.97294616699219
 },
 {
  "State": "چهارمحال وبختياري",
  "City": "كيان",
  "lat": 32.2833137512207,
  "lon": 50.88917541503906
 },
 {
  "State": "چهارمحال وبختياري",
  "City": "گندمان",
  "lat": 31.86305046081543,
  "lon": 51.153385162353516
 },
 {
  "State": "چهارمحال وبختياري",
  "City": "گهرو",
  "lat": 32.00152587890625,
  "lon": 50.886287689208984
 },
 {
  "State": "چهارمحال وبختياري",
  "City": "لردگان",
  "lat": 31.510818481445312,
  "lon": 50.8300895690918
 },
 {
  "State": "چهارمحال وبختياري",
  "City": "مال خليفه",
  "lat": 31.289859771728516,
  "lon": 51.26540756225586
 },
 {
  "State": "چهارمحال وبختياري",
  "City": "ناغان",
  "lat": 31.934322357177734,
  "lon": 50.7306022644043
 },
 {
  "State": "چهارمحال وبختياري",
  "City": "نافچ",
  "lat": 32.424095153808594,
  "lon": 50.78843688964844
 },
 {
  "State": "چهارمحال وبختياري",
  "City": "نقنه",
  "lat": 31.932336807250977,
  "lon": 51.32884216308594
 },
 {
  "State": "چهارمحال وبختياري",
  "City": "هفشجان",
  "lat": 32.22559356689453,
  "lon": 50.79463195800781
 },
 {
  "State": "خراسان جنوبي",
  "City": "ارسك",
  "lat": 33.70366668701172,
  "lon": 57.37181854248047
 },
 {
  "State": "خراسان جنوبي",
  "City": "اسديه",
  "lat": 32.91592788696289,
  "lon": 60.02449035644531
 },
 {
  "State": "خراسان جنوبي",
  "City": "اسفدن",
  "lat": 33.645267486572266,
  "lon": 59.778785705566406
 },
 {
  "State": "خراسان جنوبي",
  "City": "اسلاميه",
  "lat": 34.04231262207031,
  "lon": 58.220008850097656
 },
 {
  "State": "خراسان جنوبي",
  "City": "آرين شهر",
  "lat": 33.33110046386719,
  "lon": 59.23299789428711
 },
 {
  "State": "خراسان جنوبي",
  "City": "آيسك",
  "lat": 33.88665008544922,
  "lon": 58.381595611572266
 },
 {
  "State": "خراسان جنوبي",
  "City": "بشرويه",
  "lat": 33.852813720703125,
  "lon": 57.42244338989258
 },
 {
  "State": "خراسان جنوبي",
  "City": "بيرجند",
  "lat": 32.85693359375,
  "lon": 59.219547271728516
 },
 {
  "State": "خراسان جنوبي",
  "City": "حاجي آباد",
  "lat": 33.60467529296875,
  "lon": 59.997535705566406
 },
 {
  "State": "خراسان جنوبي",
  "City": "خضري دشت بياض",
  "lat": 34.02294921875,
  "lon": 58.806541442871094
 },
 {
  "State": "خراسان جنوبي",
  "City": "خوسف",
  "lat": 32.779170989990234,
  "lon": 58.8858642578125
 },
 {
  "State": "خراسان جنوبي",
  "City": "زهان",
  "lat": 33.41973876953125,
  "lon": 59.810890197753906
 },
 {
  "State": "خراسان جنوبي",
  "City": "سرايان",
  "lat": 33.860374450683594,
  "lon": 58.52231979370117
 },
 {
  "State": "خراسان جنوبي",
  "City": "سربيشه",
  "lat": 32.576358795166016,
  "lon": 59.79834747314453
 },
 {
  "State": "خراسان جنوبي",
  "City": "سه قلعه",
  "lat": 33.66646957397461,
  "lon": 58.3994026184082
 },
 {
  "State": "خراسان جنوبي",
  "City": "شوسف",
  "lat": 31.80333709716797,
  "lon": 60.00886917114258
 },
 {
  "State": "خراسان جنوبي",
  "City": "طبس مسينا",
  "lat": 32.801082611083984,
  "lon": 60.222938537597656
 },
 {
  "State": "خراسان جنوبي",
  "City": "فردوس",
  "lat": 34.0180778503418,
  "lon": 58.172386169433594
 },
 {
  "State": "خراسان جنوبي",
  "City": "قائن",
  "lat": 33.72944641113281,
  "lon": 59.180904388427734
 },
 {
  "State": "خراسان جنوبي",
  "City": "قهستان",
  "lat": 33.146331787109375,
  "lon": 59.715789794921875
 },
 {
  "State": "خراسان جنوبي",
  "City": "گزيك",
  "lat": 33.000301361083984,
  "lon": 60.22256088256836
 },
 {
  "State": "خراسان جنوبي",
  "City": "محمد شهر",
  "lat": 32.87498474121094,
  "lon": 59.01773452758789
 },
 {
  "State": "خراسان جنوبي",
  "City": "مود",
  "lat": 32.70532989501953,
  "lon": 59.52415084838867
 },
 {
  "State": "خراسان جنوبي",
  "City": "نهبندان",
  "lat": 31.540786743164062,
  "lon": 60.03780746459961
 },
 {
  "State": "خراسان جنوبي",
  "City": "نيمبلوك",
  "lat": 33.901100158691406,
  "lon": 58.9294319152832
 },
 {
  "State": "خراسان رضوي",
  "City": "احمدآبادصولت",
  "lat": 35.11553955078125,
  "lon": 60.68938064575195
 },
 {
  "State": "خراسان رضوي",
  "City": "انابد",
  "lat": 35.251121520996094,
  "lon": 57.80986022949219
 },
 {
  "State": "خراسان رضوي",
  "City": "باجگيران",
  "lat": 37.624114990234375,
  "lon": 58.41529083251953
 },
 {
  "State": "خراسان رضوي",
  "City": "باخرز",
  "lat": 34.98329162597656,
  "lon": 60.318756103515625
 },
 {
  "State": "خراسان رضوي",
  "City": "بار",
  "lat": 36.48887634277344,
  "lon": 58.719154357910156
 },
 {
  "State": "خراسان رضوي",
  "City": "بايگ",
  "lat": 35.37513732910156,
  "lon": 59.03970718383789
 },
 {
  "State": "خراسان رضوي",
  "City": "بجستان",
  "lat": 34.51548767089844,
  "lon": 58.181861877441406
 },
 {
  "State": "خراسان رضوي",
  "City": "بردسكن",
  "lat": 35.26028060913086,
  "lon": 57.972049713134766
 },
 {
  "State": "خراسان رضوي",
  "City": "بيدخت",
  "lat": 34.346290588378906,
  "lon": 58.7573356628418
 },
 {
  "State": "خراسان رضوي",
  "City": "تايباد",
  "lat": 34.739837646484375,
  "lon": 60.777137756347656
 },
 {
  "State": "خراسان رضوي",
  "City": "تربت جام",
  "lat": 35.24164581298828,
  "lon": 60.62161636352539
 },
 {
  "State": "خراسان رضوي",
  "City": "تربت حيدريه",
  "lat": 35.27845764160156,
  "lon": 59.21302032470703
 },
 {
  "State": "خراسان رضوي",
  "City": "جغتاي",
  "lat": 36.639652252197266,
  "lon": 57.077205657958984
 },
 {
  "State": "خراسان رضوي",
  "City": "جنگل",
  "lat": 34.701637268066406,
  "lon": 59.22346878051758
 },
 {
  "State": "خراسان رضوي",
  "City": "چاپشلو",
  "lat": 37.3474235534668,
  "lon": 59.07718276977539
 },
 {
  "State": "خراسان رضوي",
  "City": "چكنه",
  "lat": 36.817970275878906,
  "lon": 58.50419616699219
 },
 {
  "State": "خراسان رضوي",
  "City": "چناران",
  "lat": 36.64228057861328,
  "lon": 59.1208381652832
 },
 {
  "State": "خراسان رضوي",
  "City": "خرو",
  "lat": 36.13648986816406,
  "lon": 59.027069091796875
 },
 {
  "State": "خراسان رضوي",
  "City": "خليل آباد",
  "lat": 35.24498748779297,
  "lon": 58.28516387939453
 },
 {
  "State": "خراسان رضوي",
  "City": "خواف",
  "lat": 34.5628662109375,
  "lon": 60.14429473876953
 },
 {
  "State": "خراسان رضوي",
  "City": "داورزن",
  "lat": 36.35125732421875,
  "lon": 56.8780403137207
 },
 {
  "State": "خراسان رضوي",
  "City": "درگز",
  "lat": 37.44475173950195,
  "lon": 59.105712890625
 },
 {
  "State": "خراسان رضوي",
  "City": "درود",
  "lat": 36.135738372802734,
  "lon": 59.112369537353516
 },
 {
  "State": "خراسان رضوي",
  "City": "دولت آباد ",
  "lat": 35.282081604003906,
  "lon": 59.52212142944336
 },
 {
  "State": "خراسان رضوي",
  "City": "رباط سنگ",
  "lat": 35.54469680786133,
  "lon": 59.19417953491211
 },
 {
  "State": "خراسان رضوي",
  "City": "رشتخوار",
  "lat": 34.975067138671875,
  "lon": 59.623046875
 },
 {
  "State": "خراسان رضوي",
  "City": "رضويه",
  "lat": 36.205501556396484,
  "lon": 59.76985168457031
 },
 {
  "State": "خراسان رضوي",
  "City": "روداب",
  "lat": 36.02081298828125,
  "lon": 57.31240463256836
 },
 {
  "State": "خراسان رضوي",
  "City": "ريوش",
  "lat": 35.476524353027344,
  "lon": 58.461692810058594
 },
 {
  "State": "خراسان رضوي",
  "City": "سبزوار",
  "lat": 36.20921325683594,
  "lon": 57.68231964111328
 },
 {
  "State": "خراسان رضوي",
  "City": "سرخس",
  "lat": 36.54865646362305,
  "lon": 61.14860153198242
 },
 {
  "State": "خراسان رضوي",
  "City": "سفيدسنگ",
  "lat": 35.66009521484375,
  "lon": 60.09333038330078
 },
 {
  "State": "خراسان رضوي",
  "City": "سلامي",
  "lat": 34.74436950683594,
  "lon": 59.976470947265625
 },
 {
  "State": "خراسان رضوي",
  "City": "سلطان آباد",
  "lat": 36.40279769897461,
  "lon": 58.03989028930664
 },
 {
  "State": "خراسان رضوي",
  "City": "سنگان",
  "lat": 34.39777374267578,
  "lon": 60.25547790527344
 },
 {
  "State": "خراسان رضوي",
  "City": "شادمهر",
  "lat": 35.17341995239258,
  "lon": 59.0379638671875
 },
 {
  "State": "خراسان رضوي",
  "City": "شانديز",
  "lat": 36.39521408081055,
  "lon": 59.298194885253906
 },
 {
  "State": "خراسان رضوي",
  "City": "ششتمد",
  "lat": 35.95957946777344,
  "lon": 57.770225524902344
 },
 {
  "State": "خراسان رضوي",
  "City": "شهرآباد",
  "lat": 35.14691162109375,
  "lon": 57.934871673583984
 },
 {
  "State": "خراسان رضوي",
  "City": "شهرزو",
  "lat": 36.746036529541016,
  "lon": 59.92428207397461
 },
 {
  "State": "خراسان رضوي",
  "City": "صالح آباد  ",
  "lat": 35.687992095947266,
  "lon": 61.0904541015625
 },
 {
  "State": "خراسان رضوي",
  "City": "طرقبه",
  "lat": 36.304298400878906,
  "lon": 59.37632751464844
 },
 {
  "State": "خراسان رضوي",
  "City": "عشق آباد",
  "lat": 36.0394172668457,
  "lon": 58.68320846557617
 },
 {
  "State": "خراسان رضوي",
  "City": "فرهادگرد",
  "lat": 35.751827239990234,
  "lon": 59.72988510131836
 },
 {
  "State": "خراسان رضوي",
  "City": "فريمان",
  "lat": 35.70403289794922,
  "lon": 59.8482780456543
 },
 {
  "State": "خراسان رضوي",
  "City": "فيروزه",
  "lat": 36.285606384277344,
  "lon": 58.589019775390625
 },
 {
  "State": "خراسان رضوي",
  "City": "فيض آباد",
  "lat": 35.01462173461914,
  "lon": 58.775123596191406
 },
 {
  "State": "خراسان رضوي",
  "City": "قاسم آباد",
  "lat": 34.3556022644043,
  "lon": 59.861968994140625
 },
 {
  "State": "خراسان رضوي",
  "City": "قدمگاه",
  "lat": 36.105892181396484,
  "lon": 59.06046676635742
 },
 {
  "State": "خراسان رضوي",
  "City": "قلندرآباد",
  "lat": 35.598968505859375,
  "lon": 59.95104217529297
 },
 {
  "State": "خراسان رضوي",
  "City": "قوچان",
  "lat": 37.10236740112305,
  "lon": 58.51087188720703
 },
 {
  "State": "خراسان رضوي",
  "City": "كاخك",
  "lat": 34.14867401123047,
  "lon": 58.64451217651367
 },
 {
  "State": "خراسان رضوي",
  "City": "كاريز",
  "lat": 34.813636779785156,
  "lon": 60.825382232666016
 },
 {
  "State": "خراسان رضوي",
  "City": "كاشمر",
  "lat": 35.242759704589844,
  "lon": 58.45988082885742
 },
 {
  "State": "خراسان رضوي",
  "City": "كدكن",
  "lat": 35.58583450317383,
  "lon": 58.878971099853516
 },
 {
  "State": "خراسان رضوي",
  "City": "كلات",
  "lat": 36.99456024169922,
  "lon": 59.749881744384766
 },
 {
  "State": "خراسان رضوي",
  "City": "كندر",
  "lat": 35.212459564208984,
  "lon": 58.150779724121094
 },
 {
  "State": "خراسان رضوي",
  "City": "گلمكان",
  "lat": 36.48210525512695,
  "lon": 59.15949249267578
 },
 {
  "State": "خراسان رضوي",
  "City": "گناباد",
  "lat": 34.351749420166016,
  "lon": 58.68571090698242
 },
 {
  "State": "خراسان رضوي",
  "City": "لطف آباد",
  "lat": 37.51523208618164,
  "lon": 59.33473205566406
 },
 {
  "State": "خراسان رضوي",
  "City": "مزدآوند",
  "lat": 36.1546516418457,
  "lon": 60.52762985229492
 },
 {
  "State": "خراسان رضوي",
  "City": "مشهد",
  "lat": 36.31043243408203,
  "lon": 59.5756721496582
 },
 {
  "State": "خراسان رضوي",
  "City": "مشهدريزه",
  "lat": 34.795188903808594,
  "lon": 60.50761795043945
 },
 {
  "State": "خراسان رضوي",
  "City": "ملك آباد",
  "lat": 35.99659729003906,
  "lon": 59.59358596801758
 },
 {
  "State": "خراسان رضوي",
  "City": "نشتيفان",
  "lat": 34.43436050415039,
  "lon": 60.176422119140625
 },
 {
  "State": "خراسان رضوي",
  "City": "نصر آباد",
  "lat": 35.41807556152344,
  "lon": 60.315399169921875
 },
 {
  "State": "خراسان رضوي",
  "City": "نقاب",
  "lat": 36.70854568481445,
  "lon": 57.40815734863281
 },
 {
  "State": "خراسان رضوي",
  "City": "نوخندان",
  "lat": 37.51934814453125,
  "lon": 58.988914489746094
 },
 {
  "State": "خراسان رضوي",
  "City": "نيشابور",
  "lat": 36.20792770385742,
  "lon": 58.794029235839844
 },
 {
  "State": "خراسان رضوي",
  "City": "نيل شهر",
  "lat": 35.12285614013672,
  "lon": 60.77313232421875
 },
 {
  "State": "خراسان رضوي",
  "City": "همت آباد",
  "lat": 36.29778289794922,
  "lon": 58.46415710449219
 },
 {
  "State": "خراسان رضوي",
  "City": "يونسي",
  "lat": 34.805381774902344,
  "lon": 58.43721389770508
 },
 {
  "State": "خراسان شمالي",
  "City": "اسفراين",
  "lat": 37.07266616821289,
  "lon": 57.50966262817383
 },
 {
  "State": "خراسان شمالي",
  "City": "ايور",
  "lat": 36.96881103515625,
  "lon": 56.26078414916992
 },
 {
  "State": "خراسان شمالي",
  "City": "آشخانه",
  "lat": 37.55817794799805,
  "lon": 56.9239616394043
 },
 {
  "State": "خراسان شمالي",
  "City": "بجنورد",
  "lat": 37.4467887878418,
  "lon": 57.327457427978516
 },
 {
  "State": "خراسان شمالي",
  "City": "پيش قلعه",
  "lat": 37.64860153198242,
  "lon": 57.0014762878418
 },
 {
  "State": "خراسان شمالي",
  "City": "تيتكانلو",
  "lat": 37.280555725097656,
  "lon": 58.289512634277344
 },
 {
  "State": "خراسان شمالي",
  "City": "جاجرم",
  "lat": 36.95564270019531,
  "lon": 56.3577766418457
 },
 {
  "State": "خراسان شمالي",
  "City": "حصارگرمخان",
  "lat": 37.51585388183594,
  "lon": 57.484886169433594
 },
 {
  "State": "خراسان شمالي",
  "City": "درق",
  "lat": 36.972068786621094,
  "lon": 56.214500427246094
 },
 {
  "State": "خراسان شمالي",
  "City": "راز",
  "lat": 37.93445587158203,
  "lon": 57.107547760009766
 },
 {
  "State": "خراسان شمالي",
  "City": "سنخواست",
  "lat": 37.09990310668945,
  "lon": 56.851558685302734
 },
 {
  "State": "خراسان شمالي",
  "City": "شوقان",
  "lat": 37.341636657714844,
  "lon": 56.887081146240234
 },
 {
  "State": "خراسان شمالي",
  "City": "شيروان",
  "lat": 37.40151596069336,
  "lon": 57.92416763305664
 },
 {
  "State": "خراسان شمالي",
  "City": "صفي آباد",
  "lat": 36.69550323486328,
  "lon": 57.927024841308594
 },
 {
  "State": "خراسان شمالي",
  "City": "فاروج",
  "lat": 37.22369384765625,
  "lon": 58.21890640258789
 },
 {
  "State": "خراسان شمالي",
  "City": "قاضي",
  "lat": 37.4950065612793,
  "lon": 56.7486572265625
 },
 {
  "State": "خراسان شمالي",
  "City": "گرمه",
  "lat": 36.978519439697266,
  "lon": 56.30154037475586
 },
 {
  "State": "خراسان شمالي",
  "City": "لوجلي",
  "lat": 37.60704040527344,
  "lon": 57.857635498046875
 },
 {
  "State": "خوزستان",
  "City": "اروندكنار",
  "lat": 29.97808265686035,
  "lon": 48.51682662963867
 },
 {
  "State": "خوزستان",
  "City": "الوان",
  "lat": 31.874101638793945,
  "lon": 48.34111404418945
 },
 {
  "State": "خوزستان",
  "City": "اميديه",
  "lat": 30.75560760498047,
  "lon": 49.712249755859375
 },
 {
  "State": "خوزستان",
  "City": "انديمشك",
  "lat": 32.424644470214844,
  "lon": 48.37310028076172
 },
 {
  "State": "خوزستان",
  "City": "اهواز",
  "lat": 31.242013931274414,
  "lon": 48.67127227783203
 },
 {
  "State": "خوزستان",
  "City": "ايذه",
  "lat": 31.830684661865234,
  "lon": 49.86493682861328
 },
 {
  "State": "خوزستان",
  "City": "آبادان",
  "lat": 30.356008529663086,
  "lon": 48.280052185058594
 },
 {
  "State": "خوزستان",
  "City": "آغاجاري",
  "lat": 30.69972038269043,
  "lon": 49.829769134521484
 },
 {
  "State": "خوزستان",
  "City": "باغ ملك",
  "lat": 31.5133056640625,
  "lon": 49.89049530029297
 },
 {
  "State": "خوزستان",
  "City": "بستان",
  "lat": 31.72163963317871,
  "lon": 47.98114776611328
 },
 {
  "State": "خوزستان",
  "City": "بندرامام خميني",
  "lat": 30.43869972229004,
  "lon": 49.0756721496582
 },
 {
  "State": "خوزستان",
  "City": "بندرماهشهر",
  "lat": 30.46946907043457,
  "lon": 49.18000793457031
 },
 {
  "State": "خوزستان",
  "City": "بهبهان",
  "lat": 30.596263885498047,
  "lon": 50.241607666015625
 },
 {
  "State": "خوزستان",
  "City": "تركالكي",
  "lat": 32.24267578125,
  "lon": 48.84632110595703
 },
 {
  "State": "خوزستان",
  "City": "جايزان",
  "lat": 30.874950408935547,
  "lon": 49.854434967041016
 },
 {
  "State": "خوزستان",
  "City": "جنت مكان",
  "lat": 32.18430709838867,
  "lon": 48.81614685058594
 },
 {
  "State": "خوزستان",
  "City": "چغاميش",
  "lat": 32.20948028564453,
  "lon": 48.545555114746094
 },
 {
  "State": "خوزستان",
  "City": "چمران",
  "lat": 30.713563919067383,
  "lon": 49.1768684387207
 },
 {
  "State": "خوزستان",
  "City": "چوئبده",
  "lat": 30.20004653930664,
  "lon": 48.55318832397461
 },
 {
  "State": "خوزستان",
  "City": "حر",
  "lat": 32.14421844482422,
  "lon": 48.390525817871094
 },
 {
  "State": "خوزستان",
  "City": "حسينيه",
  "lat": 32.663352966308594,
  "lon": 48.24562072753906
 },
 {
  "State": "خوزستان",
  "City": "حمزه",
  "lat": 32.39622497558594,
  "lon": 48.57854080200195
 },
 {
  "State": "خوزستان",
  "City": "حميديه",
  "lat": 31.48162078857422,
  "lon": 48.43239974975586
 },
 {
  "State": "خوزستان",
  "City": "خرمشهر",
  "lat": 30.4448184967041,
  "lon": 48.17879104614258
 },
 {
  "State": "خوزستان",
  "City": "دارخوين",
  "lat": 30.744932174682617,
  "lon": 48.42924880981445
 },
 {
  "State": "خوزستان",
  "City": "دزآب",
  "lat": 32.287906646728516,
  "lon": 48.42823791503906
 },
 {
  "State": "خوزستان",
  "City": "دزفول",
  "lat": 32.3788948059082,
  "lon": 48.4193000793457
 },
 {
  "State": "خوزستان",
  "City": "دهدز",
  "lat": 31.7099552154541,
  "lon": 50.28852844238281
 },
 {
  "State": "خوزستان",
  "City": "رامشير",
  "lat": 30.89275550842285,
  "lon": 49.40882873535156
 },
 {
  "State": "خوزستان",
  "City": "رامهرمز",
  "lat": 31.25921630859375,
  "lon": 49.60531234741211
 },
 {
  "State": "خوزستان",
  "City": "رفيع",
  "lat": 31.597434997558594,
  "lon": 47.89417266845703
 },
 {
  "State": "خوزستان",
  "City": "زهره",
  "lat": 30.468154907226562,
  "lon": 49.68301010131836
 },
 {
  "State": "خوزستان",
  "City": "سالند",
  "lat": 32.49406814575195,
  "lon": 48.83433532714844
 },
 {
  "State": "خوزستان",
  "City": "سردشت ",
  "lat": 30.32780647277832,
  "lon": 50.21788024902344
 },
 {
  "State": "خوزستان",
  "City": "سماله",
  "lat": 32.19401168823242,
  "lon": 48.85775375366211
 },
 {
  "State": "خوزستان",
  "City": "سوسنگرد",
  "lat": 31.55861473083496,
  "lon": 48.1895866394043
 },
 {
  "State": "خوزستان",
  "City": "شادگان",
  "lat": 30.64126205444336,
  "lon": 48.663536071777344
 },
 {
  "State": "خوزستان",
  "City": "شاوور",
  "lat": 32.058685302734375,
  "lon": 48.300872802734375
 },
 {
  "State": "خوزستان",
  "City": "شرافت",
  "lat": 32.08808135986328,
  "lon": 48.76771926879883
 },
 {
  "State": "خوزستان",
  "City": "شوش",
  "lat": 32.20674514770508,
  "lon": 48.25742721557617
 },
 {
  "State": "خوزستان",
  "City": "شوشتر",
  "lat": 32.05464172363281,
  "lon": 48.834716796875
 },
 {
  "State": "خوزستان",
  "City": "شيبان",
  "lat": 31.38457489013672,
  "lon": 48.787113189697266
 },
 {
  "State": "خوزستان",
  "City": "صالح شهر",
  "lat": 32.21367263793945,
  "lon": 48.672183990478516
 },
 {
  "State": "خوزستان",
  "City": "صالح مشطط",
  "lat": 32.31357955932617,
  "lon": 48.148067474365234
 },
 {
  "State": "خوزستان",
  "City": "صفي آباد ",
  "lat": 32.24784469604492,
  "lon": 48.4215087890625
 },
 {
  "State": "خوزستان",
  "City": "صيدون",
  "lat": 31.36574363708496,
  "lon": 50.08139419555664
 },
 {
  "State": "خوزستان",
  "City": "قلعه تل",
  "lat": 31.631498336791992,
  "lon": 49.89017868041992
 },
 {
  "State": "خوزستان",
  "City": "قلعه خواجه",
  "lat": 32.205299377441406,
  "lon": 49.44870376586914
 },
 {
  "State": "خوزستان",
  "City": "گتوند",
  "lat": 32.247215270996094,
  "lon": 48.81782531738281
 },
 {
  "State": "خوزستان",
  "City": "گوريه",
  "lat": 31.85664176940918,
  "lon": 48.75579071044922
 },
 {
  "State": "خوزستان",
  "City": "لالي",
  "lat": 32.32981872558594,
  "lon": 49.09298324584961
 },
 {
  "State": "خوزستان",
  "City": "مسجدسليمان",
  "lat": 31.964662551879883,
  "lon": 49.286338806152344
 },
 {
  "State": "خوزستان",
  "City": "مشراگه",
  "lat": 31.01070213317871,
  "lon": 49.43793869018555
 },
 {
  "State": "خوزستان",
  "City": "مقاومت",
  "lat": 30.406890869140625,
  "lon": 48.19532775878906
 },
 {
  "State": "خوزستان",
  "City": "ملاثاني",
  "lat": 31.58534812927246,
  "lon": 48.88701248168945
 },
 {
  "State": "خوزستان",
  "City": "ميانرود",
  "lat": 32.227867126464844,
  "lon": 48.424461364746094
 },
 {
  "State": "خوزستان",
  "City": "ميداود",
  "lat": 31.372467041015625,
  "lon": 49.813663482666016
 },
 {
  "State": "خوزستان",
  "City": "مينوشهر",
  "lat": 30.360654830932617,
  "lon": 48.21039581298828
 },
 {
  "State": "خوزستان",
  "City": "ويس",
  "lat": 31.48414421081543,
  "lon": 48.874507904052734
 },
 {
  "State": "خوزستان",
  "City": "هفتگل",
  "lat": 31.4456787109375,
  "lon": 49.533138275146484
 },
 {
  "State": "خوزستان",
  "City": "هنديجان",
  "lat": 30.22368621826172,
  "lon": 49.71139907836914
 },
 {
  "State": "خوزستان",
  "City": "هويزه",
  "lat": 31.460681915283203,
  "lon": 48.07748794555664
 },
 {
  "State": "زنجان",
  "City": "ابهر",
  "lat": 36.136131286621094,
  "lon": 49.224544525146484
 },
 {
  "State": "زنجان",
  "City": "ارمغانخانه",
  "lat": 36.9781494140625,
  "lon": 48.37194061279297
 },
 {
  "State": "زنجان",
  "City": "آب بر",
  "lat": 36.927852630615234,
  "lon": 48.9561653137207
 },
 {
  "State": "زنجان",
  "City": "چورزق",
  "lat": 36.99287796020508,
  "lon": 48.778526306152344
 },
 {
  "State": "زنجان",
  "City": "حلب",
  "lat": 36.29621124267578,
  "lon": 48.06386184692383
 },
 {
  "State": "زنجان",
  "City": "خرمدره",
  "lat": 36.211456298828125,
  "lon": 49.19538879394531
 },
 {
  "State": "زنجان",
  "City": "دندي",
  "lat": 36.55109405517578,
  "lon": 47.620243072509766
 },
 {
  "State": "زنجان",
  "City": "زرين آباد",
  "lat": 36.42923355102539,
  "lon": 48.27695083618164
 },
 {
  "State": "زنجان",
  "City": "زرين رود",
  "lat": 35.75621795654297,
  "lon": 48.4810905456543
 },
 {
  "State": "زنجان",
  "City": "زنجان",
  "lat": 36.6795539855957,
  "lon": 48.49299621582031
 },
 {
  "State": "زنجان",
  "City": "سجاس",
  "lat": 36.2405891418457,
  "lon": 48.55308532714844
 },
 {
  "State": "زنجان",
  "City": "سلطانيه",
  "lat": 36.433631896972656,
  "lon": 48.79550552368164
 },
 {
  "State": "زنجان",
  "City": "سهرورد",
  "lat": 36.07280731201172,
  "lon": 48.43910217285156
 },
 {
  "State": "زنجان",
  "City": "صائين قلعه",
  "lat": 36.30476760864258,
  "lon": 49.07235336303711
 },
 {
  "State": "زنجان",
  "City": "قيدار",
  "lat": 36.10856628417969,
  "lon": 48.589988708496094
 },
 {
  "State": "زنجان",
  "City": "گرماب",
  "lat": 35.84553909301758,
  "lon": 48.20112228393555
 },
 {
  "State": "زنجان",
  "City": "ماه نشان",
  "lat": 36.74358367919922,
  "lon": 47.67064666748047
 },
 {
  "State": "زنجان",
  "City": "هيدج",
  "lat": 36.2540397644043,
  "lon": 49.12958526611328
 },
 {
  "State": "سمنان",
  "City": "اميريه",
  "lat": 36.02804946899414,
  "lon": 54.14220428466797
 },
 {
  "State": "سمنان",
  "City": "ايوانكي",
  "lat": 35.344974517822266,
  "lon": 52.06897735595703
 },
 {
  "State": "سمنان",
  "City": "آرادان",
  "lat": 35.25164794921875,
  "lon": 52.49753952026367
 },
 {
  "State": "سمنان",
  "City": "بسطام",
  "lat": 36.48446273803711,
  "lon": 55.00090026855469
 },
 {
  "State": "سمنان",
  "City": "بيارجمند",
  "lat": 36.07866668701172,
  "lon": 55.807430267333984
 },
 {
  "State": "سمنان",
  "City": "دامغان",
  "lat": 36.165199279785156,
  "lon": 54.34484100341797
 },
 {
  "State": "سمنان",
  "City": "درجزين",
  "lat": 35.645606994628906,
  "lon": 53.333641052246094
 },
 {
  "State": "سمنان",
  "City": "ديباج",
  "lat": 36.43052291870117,
  "lon": 54.228912353515625
 },
 {
  "State": "سمنان",
  "City": "سرخه",
  "lat": 35.46372604370117,
  "lon": 53.210357666015625
 },
 {
  "State": "سمنان",
  "City": "سمنان",
  "lat": 35.57711410522461,
  "lon": 53.381927490234375
 },
 {
  "State": "سمنان",
  "City": "شاهرود",
  "lat": 36.412086486816406,
  "lon": 54.97246170043945
 },
 {
  "State": "سمنان",
  "City": "شهميرزاد",
  "lat": 35.770233154296875,
  "lon": 53.33358383178711
 },
 {
  "State": "سمنان",
  "City": "كلاته خيج",
  "lat": 36.670562744140625,
  "lon": 55.30048751831055
 },
 {
  "State": "سمنان",
  "City": "گرمسار",
  "lat": 35.21782302856445,
  "lon": 52.33362579345703
 },
 {
  "State": "سمنان",
  "City": "مجن",
  "lat": 36.480220794677734,
  "lon": 54.647979736328125
 },
 {
  "State": "سمنان",
  "City": "مهدي شهر",
  "lat": 35.699649810791016,
  "lon": 53.34587097167969
 },
 {
  "State": "سمنان",
  "City": "ميامي",
  "lat": 36.409324645996094,
  "lon": 55.65165328979492
 },
 {
  "State": "سيستان وبلوچستان",
  "City": "اديمي",
  "lat": 31.11745262145996,
  "lon": 61.40764236450195
 },
 {
  "State": "سيستان وبلوچستان",
  "City": "اسپكه",
  "lat": 26.837358474731445,
  "lon": 60.172325134277344
 },
 {
  "State": "سيستان وبلوچستان",
  "City": "ايرانشهر",
  "lat": 27.204164505004883,
  "lon": 60.67512893676758
 },
 {
  "State": "سيستان وبلوچستان",
  "City": "بزمان",
  "lat": 27.850345611572266,
  "lon": 60.17548370361328
 },
 {
  "State": "سيستان وبلوچستان",
  "City": "بمپور",
  "lat": 27.193740844726562,
  "lon": 60.45621871948242
 },
 {
  "State": "سيستان وبلوچستان",
  "City": "بنت",
  "lat": 26.286823272705078,
  "lon": 59.52267074584961
 },
 {
  "State": "سيستان وبلوچستان",
  "City": "بنجار",
  "lat": 31.04289436340332,
  "lon": 61.56745147705078
 },
 {
  "State": "سيستان وبلوچستان",
  "City": "پيشين",
  "lat": 26.07985496520996,
  "lon": 61.7484016418457
 },
 {
  "State": "سيستان وبلوچستان",
  "City": "جالق",
  "lat": 27.582786560058594,
  "lon": 62.70072555541992
 },
 {
  "State": "سيستان وبلوچستان",
  "City": "چاه بهار",
  "lat": 25.294519424438477,
  "lon": 60.647701263427734
 },
 {
  "State": "سيستان وبلوچستان",
  "City": "خاش",
  "lat": 28.209436416625977,
  "lon": 61.20286178588867
 },
 {
  "State": "سيستان وبلوچستان",
  "City": "دوست محمد",
  "lat": 31.142732620239258,
  "lon": 61.792808532714844
 },
 {
  "State": "سيستان وبلوچستان",
  "City": "راسك",
  "lat": 26.233251571655273,
  "lon": 61.40544128417969
 },
 {
  "State": "سيستان وبلوچستان",
  "City": "زابل",
  "lat": 31.008867263793945,
  "lon": 61.49380874633789
 },
 {
  "State": "سيستان وبلوچستان",
  "City": "زابلي",
  "lat": 27.114587783813477,
  "lon": 61.67259979248047
 },
 {
  "State": "سيستان وبلوچستان",
  "City": "زاهدان",
  "lat": 29.482135772705078,
  "lon": 60.85205078125
 },
 {
  "State": "سيستان وبلوچستان",
  "City": "زرآباد",
  "lat": 25.587236404418945,
  "lon": 59.39628982543945
 },
 {
  "State": "سيستان وبلوچستان",
  "City": "زهك",
  "lat": 30.89316177368164,
  "lon": 61.682926177978516
 },
 {
  "State": "سيستان وبلوچستان",
  "City": "سراوان",
  "lat": 27.361343383789062,
  "lon": 62.333072662353516
 },
 {
  "State": "سيستان وبلوچستان",
  "City": "سرباز",
  "lat": 26.633235931396484,
  "lon": 61.258060455322266
 },
 {
  "State": "سيستان وبلوچستان",
  "City": "سوران",
  "lat": 27.286029815673828,
  "lon": 61.99488067626953
 },
 {
  "State": "سيستان وبلوچستان",
  "City": "سيركان",
  "lat": 26.829872131347656,
  "lon": 62.63848114013672
 },
 {
  "State": "سيستان وبلوچستان",
  "City": "علي اكبر",
  "lat": 30.93907928466797,
  "lon": 61.327964782714844
 },
 {
  "State": "سيستان وبلوچستان",
  "City": "فنوج",
  "lat": 26.575727462768555,
  "lon": 59.64498519897461
 },
 {
  "State": "سيستان وبلوچستان",
  "City": "قصرقند",
  "lat": 26.21303939819336,
  "lon": 60.741676330566406
 },
 {
  "State": "سيستان وبلوچستان",
  "City": "كنارك",
  "lat": 25.359519958496094,
  "lon": 60.39698028564453
 },
 {
  "State": "سيستان وبلوچستان",
  "City": "گشت",
  "lat": 27.788606643676758,
  "lon": 61.951087951660156
 },
 {
  "State": "سيستان وبلوچستان",
  "City": "گلمورتي",
  "lat": 27.481229782104492,
  "lon": 59.447322845458984
 },
 {
  "State": "سيستان وبلوچستان",
  "City": "محمدان",
  "lat": 27.19989776611328,
  "lon": 60.56081771850586
 },
 {
  "State": "سيستان وبلوچستان",
  "City": "محمد آباد",
  "lat": 30.872926712036133,
  "lon": 61.46186447143555
 },
 {
  "State": "سيستان وبلوچستان",
  "City": "محمدي",
  "lat": 27.326833724975586,
  "lon": 62.390167236328125
 },
 {
  "State": "سيستان وبلوچستان",
  "City": "ميرجاوه",
  "lat": 29.015644073486328,
  "lon": 61.449546813964844
 },
 {
  "State": "سيستان وبلوچستان",
  "City": "نصرت آباد",
  "lat": 29.857982635498047,
  "lon": 59.97365951538086
 },
 {
  "State": "سيستان وبلوچستان",
  "City": "نگور",
  "lat": 25.388805389404297,
  "lon": 61.13994216918945
 },
 {
  "State": "سيستان وبلوچستان",
  "City": "نوك آباد",
  "lat": 28.539108276367188,
  "lon": 60.758880615234375
 },
 {
  "State": "سيستان وبلوچستان",
  "City": "نيك شهر",
  "lat": 26.23455238342285,
  "lon": 60.22686004638672
 },
 {
  "State": "سيستان وبلوچستان",
  "City": "هيدوج",
  "lat": 27.00206184387207,
  "lon": 62.11936950683594
 },
 {
  "State": "فارس",
  "City": "اردكان",
  "lat": 30.232065200805664,
  "lon": 51.99205017089844
 },
 {
  "State": "فارس",
  "City": "ارسنجان",
  "lat": 29.90981101989746,
  "lon": 53.300697326660156
 },
 {
  "State": "فارس",
  "City": "استهبان",
  "lat": 29.126066207885742,
  "lon": 54.04462814331055
 },
 {
  "State": "فارس",
  "City": "اسير",
  "lat": 27.72283172607422,
  "lon": 52.665687561035156
 },
 {
  "State": "فارس",
  "City": "اشكنان",
  "lat": 27.225536346435547,
  "lon": 53.60817337036133
 },
 {
  "State": "فارس",
  "City": "افزر",
  "lat": 28.346294403076172,
  "lon": 52.96562576293945
 },
 {
  "State": "فارس",
  "City": "اقليد",
  "lat": 30.901920318603516,
  "lon": 52.70526123046875
 },
 {
  "State": "فارس",
  "City": "امام شهر",
  "lat": 28.445236206054688,
  "lon": 53.150604248046875
 },
 {
  "State": "فارس",
  "City": "اوز",
  "lat": 27.75788116455078,
  "lon": 54.01237869262695
 },
 {
  "State": "فارس",
  "City": "اهل",
  "lat": 27.210994720458984,
  "lon": 53.659793853759766
 },
 {
  "State": "فارس",
  "City": "ايج",
  "lat": 29.020172119140625,
  "lon": 54.245384216308594
 },
 {
  "State": "فارس",
  "City": "ايزدخواست",
  "lat": 31.517009735107422,
  "lon": 52.124935150146484
 },
 {
  "State": "فارس",
  "City": "آباده",
  "lat": 31.142982482910156,
  "lon": 52.650115966796875
 },
 {
  "State": "فارس",
  "City": "آباده طشك",
  "lat": 29.80986213684082,
  "lon": 53.73068618774414
 },
 {
  "State": "فارس",
  "City": "باب انار",
  "lat": 28.96844482421875,
  "lon": 53.209144592285156
 },
 {
  "State": "فارس",
  "City": "بالاده",
  "lat": 29.284992218017578,
  "lon": 51.938926696777344
 },
 {
  "State": "فارس",
  "City": "بنارويه",
  "lat": 28.086610794067383,
  "lon": 54.045631408691406
 },
 {
  "State": "فارس",
  "City": "بوانات",
  "lat": 30.460935592651367,
  "lon": 53.63896560668945
 },
 {
  "State": "فارس",
  "City": "بهمن",
  "lat": 31.19485855102539,
  "lon": 52.48530960083008
 },
 {
  "State": "فارس",
  "City": "بيرم",
  "lat": 27.430912017822266,
  "lon": 53.51512145996094
 },
 {
  "State": "فارس",
  "City": "بيضا",
  "lat": 29.97089385986328,
  "lon": 52.39775848388672
 },
 {
  "State": "فارس",
  "City": "جنت شهر",
  "lat": 28.653474807739258,
  "lon": 54.685176849365234
 },
 {
  "State": "فارس",
  "City": "جويم",
  "lat": 28.261545181274414,
  "lon": 53.97995376586914
 },
 {
  "State": "فارس",
  "City": "جهرم",
  "lat": 28.494918823242188,
  "lon": 53.56688690185547
 },
 {
  "State": "فارس",
  "City": "حاجي آباد ",
  "lat": 28.35749626159668,
  "lon": 54.42031478881836
 },
 {
  "State": "فارس",
  "City": "حسامي",
  "lat": 29.96754264831543,
  "lon": 53.872406005859375
 },
 {
  "State": "فارس",
  "City": "حسن آباد  ",
  "lat": 30.51979637145996,
  "lon": 52.45603942871094
 },
 {
  "State": "فارس",
  "City": "خانه زنيان",
  "lat": 29.671186447143555,
  "lon": 52.14970397949219
 },
 {
  "State": "فارس",
  "City": "خاوران",
  "lat": 28.93893814086914,
  "lon": 53.31309509277344
 },
 {
  "State": "فارس",
  "City": "خرامه",
  "lat": 29.49304962158203,
  "lon": 53.31003189086914
 },
 {
  "State": "فارس",
  "City": "خشت",
  "lat": 29.55426025390625,
  "lon": 51.33544158935547
 },
 {
  "State": "فارس",
  "City": "خنج",
  "lat": 27.892332077026367,
  "lon": 53.42961502075195
 },
 {
  "State": "فارس",
  "City": "خور ",
  "lat": 27.644628524780273,
  "lon": 54.34395217895508
 },
 {
  "State": "فارس",
  "City": "خومه زار",
  "lat": 30.006324768066406,
  "lon": 51.578121185302734
 },
 {
  "State": "فارس",
  "City": "داراب",
  "lat": 28.754261016845703,
  "lon": 54.547122955322266
 },
 {
  "State": "فارس",
  "City": "داريان",
  "lat": 29.560331344604492,
  "lon": 52.92008972167969
 },
 {
  "State": "فارس",
  "City": "دبيران",
  "lat": 28.396162033081055,
  "lon": 54.18682861328125
 },
 {
  "State": "فارس",
  "City": "دژكرد",
  "lat": 30.713613510131836,
  "lon": 51.957942962646484
 },
 {
  "State": "فارس",
  "City": "دوبرجي",
  "lat": 28.307340621948242,
  "lon": 55.1925048828125
 },
 {
  "State": "فارس",
  "City": "دوزه",
  "lat": 28.701086044311523,
  "lon": 52.958492279052734
 },
 {
  "State": "فارس",
  "City": "دهرم",
  "lat": 28.49329376220703,
  "lon": 52.304222106933594
 },
 {
  "State": "فارس",
  "City": "رامجرد",
  "lat": 30.074880599975586,
  "lon": 52.59263610839844
 },
 {
  "State": "فارس",
  "City": "رونيز",
  "lat": 29.19205665588379,
  "lon": 53.76940155029297
 },
 {
  "State": "فارس",
  "City": "زاهدشهر",
  "lat": 28.74662971496582,
  "lon": 53.804649353027344
 },
 {
  "State": "فارس",
  "City": "زرقان",
  "lat": 29.773832321166992,
  "lon": 52.721778869628906
 },
 {
  "State": "فارس",
  "City": "سده",
  "lat": 30.71057891845703,
  "lon": 52.176116943359375
 },
 {
  "State": "فارس",
  "City": "سروستان",
  "lat": 29.26302719116211,
  "lon": 53.223873138427734
 },
 {
  "State": "فارس",
  "City": "سعادت شهر",
  "lat": 30.07427406311035,
  "lon": 53.136131286621094
 },
 {
  "State": "فارس",
  "City": "سورمق",
  "lat": 31.034488677978516,
  "lon": 52.83955764770508
 },
 {
  "State": "فارس",
  "City": "سيدان",
  "lat": 30.00446319580078,
  "lon": 53.00567626953125
 },
 {
  "State": "فارس",
  "City": "ششده",
  "lat": 28.949642181396484,
  "lon": 53.995758056640625
 },
 {
  "State": "فارس",
  "City": "شهر جديد صدرا",
  "lat": 29.801013946533203,
  "lon": 52.50849533081055
 },
 {
  "State": "فارس",
  "City": "شهرپير",
  "lat": 28.311695098876953,
  "lon": 54.33503341674805
 },
 {
  "State": "فارس",
  "City": "شيراز",
  "lat": 29.5568904876709,
  "lon": 52.52912139892578
 },
 {
  "State": "فارس",
  "City": "صغاد",
  "lat": 31.191070556640625,
  "lon": 52.51543426513672
 },
 {
  "State": "فارس",
  "City": "صفاشهر",
  "lat": 30.613666534423828,
  "lon": 53.19872283935547
 },
 {
  "State": "فارس",
  "City": "علامرودشت",
  "lat": 27.624462127685547,
  "lon": 53.00065994262695
 },
 {
  "State": "فارس",
  "City": "عمادده",
  "lat": 27.444644927978516,
  "lon": 53.86183547973633
 },
 {
  "State": "فارس",
  "City": "فدامي",
  "lat": 28.216808319091797,
  "lon": 55.1351432800293
 },
 {
  "State": "فارس",
  "City": "فراشبند",
  "lat": 28.858890533447266,
  "lon": 52.09375
 },
 {
  "State": "فارس",
  "City": "فسا",
  "lat": 28.91972541809082,
  "lon": 53.637691497802734
 },
 {
  "State": "فارس",
  "City": "فيروزآباد",
  "lat": 28.84885597229004,
  "lon": 52.569801330566406
 },
 {
  "State": "فارس",
  "City": "قادرآباد",
  "lat": 30.28066635131836,
  "lon": 53.255088806152344
 },
 {
  "State": "فارس",
  "City": "قائميه",
  "lat": 29.844316482543945,
  "lon": 51.59110641479492
 },
 {
  "State": "فارس",
  "City": "قطب آباد",
  "lat": 28.640674591064453,
  "lon": 53.63947296142578
 },
 {
  "State": "فارس",
  "City": "قطرويه",
  "lat": 29.14603614807129,
  "lon": 54.70355224609375
 },
 {
  "State": "فارس",
  "City": "قير",
  "lat": 28.47461700439453,
  "lon": 53.04390335083008
 },
 {
  "State": "فارس",
  "City": "كارزين",
  "lat": 28.408716201782227,
  "lon": 53.108524322509766
 },
 {
  "State": "فارس",
  "City": "كازرون",
  "lat": 29.60374641418457,
  "lon": 51.651798248291016
 },
 {
  "State": "فارس",
  "City": "كامفيروز",
  "lat": 30.321983337402344,
  "lon": 52.19429397583008
 },
 {
  "State": "فارس",
  "City": "كره اي",
  "lat": 30.029726028442383,
  "lon": 53.715755462646484
 },
 {
  "State": "فارس",
  "City": "كنارتخته",
  "lat": 29.533912658691406,
  "lon": 51.39491653442383
 },
 {
  "State": "فارس",
  "City": "كوار",
  "lat": 29.19608497619629,
  "lon": 52.68671798706055
 },
 {
  "State": "فارس",
  "City": "كوهنجان",
  "lat": 29.231130599975586,
  "lon": 52.95619201660156
 },
 {
  "State": "فارس",
  "City": "گراش",
  "lat": 27.667142868041992,
  "lon": 54.14503479003906
 },
 {
  "State": "فارس",
  "City": "گله دار",
  "lat": 27.648807525634766,
  "lon": 52.66020584106445
 },
 {
  "State": "فارس",
  "City": "لار",
  "lat": 27.642648696899414,
  "lon": 54.32035827636719
 },
 {
  "State": "فارس",
  "City": "لامرد",
  "lat": 27.329967498779297,
  "lon": 53.18791961669922
 },
 {
  "State": "فارس",
  "City": "لپوئي",
  "lat": 29.799072265625,
  "lon": 52.65207290649414
 },
 {
  "State": "فارس",
  "City": "لطيفي",
  "lat": 27.689958572387695,
  "lon": 54.38670349121094
 },
 {
  "State": "فارس",
  "City": "مبارك آباد",
  "lat": 28.36018180847168,
  "lon": 53.32870101928711
 },
 {
  "State": "فارس",
  "City": "مرودشت",
  "lat": 29.85951042175293,
  "lon": 52.810272216796875
 },
 {
  "State": "فارس",
  "City": "مشكان",
  "lat": 29.472816467285156,
  "lon": 54.34591293334961
 },
 {
  "State": "فارس",
  "City": "مصيري",
  "lat": 30.24431037902832,
  "lon": 51.52890396118164
 },
 {
  "State": "فارس",
  "City": "مهر",
  "lat": 27.550458908081055,
  "lon": 52.88385009765625
 },
 {
  "State": "فارس",
  "City": "ميمند",
  "lat": 28.868288040161133,
  "lon": 52.75091552734375
 },
 {
  "State": "فارس",
  "City": "نوبندگان",
  "lat": 28.853822708129883,
  "lon": 53.82592010498047
 },
 {
  "State": "فارس",
  "City": "نوجين",
  "lat": 29.12537384033203,
  "lon": 52.01348876953125
 },
 {
  "State": "فارس",
  "City": "نودان",
  "lat": 29.801660537719727,
  "lon": 51.69422912597656
 },
 {
  "State": "فارس",
  "City": "نورآباد",
  "lat": 30.114816665649414,
  "lon": 51.52225112915039
 },
 {
  "State": "فارس",
  "City": "ني ريز",
  "lat": 29.197921752929688,
  "lon": 54.322654724121094
 },
 {
  "State": "فارس",
  "City": "وراوي",
  "lat": 27.46503257751465,
  "lon": 53.05218505859375
 },
 {
  "State": "فارس",
  "City": "هماشهر",
  "lat": 30.11542320251465,
  "lon": 52.087677001953125
 },
 {
  "State": "قزوين",
  "City": "ارداق",
  "lat": 36.0533561706543,
  "lon": 49.82441711425781
 },
 {
  "State": "قزوين",
  "City": "اسفرورين",
  "lat": 35.935081481933594,
  "lon": 49.75028610229492
 },
 {
  "State": "قزوين",
  "City": "اقباليه",
  "lat": 36.232086181640625,
  "lon": 49.92666244506836
 },
 {
  "State": "قزوين",
  "City": "الوند",
  "lat": 36.17034149169922,
  "lon": 50.074153900146484
 },
 {
  "State": "قزوين",
  "City": "آبگرم",
  "lat": 35.75740051269531,
  "lon": 49.287296295166016
 },
 {
  "State": "قزوين",
  "City": "آبيك",
  "lat": 36.03989028930664,
  "lon": 50.52969741821289
 },
 {
  "State": "قزوين",
  "City": "آوج",
  "lat": 35.57978057861328,
  "lon": 49.221839904785156
 },
 {
  "State": "قزوين",
  "City": "بوئين زهرا",
  "lat": 35.75715255737305,
  "lon": 50.06196975708008
 },
 {
  "State": "قزوين",
  "City": "بيدستان",
  "lat": 36.231266021728516,
  "lon": 50.121402740478516
 },
 {
  "State": "قزوين",
  "City": "تاكستان",
  "lat": 36.07141876220703,
  "lon": 49.69615936279297
 },
 {
  "State": "قزوين",
  "City": "خاكعلي",
  "lat": 36.12889099121094,
  "lon": 50.175777435302734
 },
 {
  "State": "قزوين",
  "City": "خرمدشت",
  "lat": 35.92984390258789,
  "lon": 49.51174545288086
 },
 {
  "State": "قزوين",
  "City": "دانسفهان",
  "lat": 35.81162643432617,
  "lon": 49.74360275268555
 },
 {
  "State": "قزوين",
  "City": "رازميان",
  "lat": 36.53649139404297,
  "lon": 50.212337493896484
 },
 {
  "State": "قزوين",
  "City": "سگزآباد",
  "lat": 35.764129638671875,
  "lon": 49.93947219848633
 },
 {
  "State": "قزوين",
  "City": "سيردان",
  "lat": 36.65159225463867,
  "lon": 49.18821334838867
 },
 {
  "State": "قزوين",
  "City": "شال",
  "lat": 35.89759826660156,
  "lon": 49.768367767333984
 },
 {
  "State": "قزوين",
  "City": "شريفيه",
  "lat": 36.20341110229492,
  "lon": 50.151344299316406
 },
 {
  "State": "قزوين",
  "City": "ضياءآباد",
  "lat": 35.995506286621094,
  "lon": 49.449337005615234
 },
 {
  "State": "قزوين",
  "City": "قزوين",
  "lat": 36.28174591064453,
  "lon": 50.00196838378906
 },
 {
  "State": "قزوين",
  "City": "كوهين",
  "lat": 36.372867584228516,
  "lon": 49.65810775756836
 },
 {
  "State": "قزوين",
  "City": "محمديه",
  "lat": 36.22401809692383,
  "lon": 50.182586669921875
 },
 {
  "State": "قزوين",
  "City": "محمودآبادنمونه",
  "lat": 36.29042053222656,
  "lon": 49.90264129638672
 },
 {
  "State": "قزوين",
  "City": "معلم كلايه",
  "lat": 36.4472770690918,
  "lon": 50.47819519042969
 },
 {
  "State": "قزوين",
  "City": "نرجه",
  "lat": 35.99202346801758,
  "lon": 49.620330810546875
 },
 {
  "State": "قم",
  "City": "جعفريه",
  "lat": 34.77463912963867,
  "lon": 50.516605377197266
 },
 {
  "State": "قم",
  "City": "دستجرد",
  "lat": 34.55284881591797,
  "lon": 50.24821853637695
 },
 {
  "State": "قم",
  "City": "سلفچگان",
  "lat": 34.47826385498047,
  "lon": 50.45762634277344
 },
 {
  "State": "قم",
  "City": "قم",
  "lat": 34.59394836425781,
  "lon": 50.874290466308594
 },
 {
  "State": "قم",
  "City": "قنوات",
  "lat": 34.61101150512695,
  "lon": 51.02547073364258
 },
 {
  "State": "قم",
  "City": "كهك",
  "lat": 34.39292526245117,
  "lon": 50.86410903930664
 },
 {
  "State": "كردستان",
  "City": "آرمرده",
  "lat": 35.92939376831055,
  "lon": 45.796730041503906
 },
 {
  "State": "كردستان",
  "City": "بابارشاني",
  "lat": 35.674224853515625,
  "lon": 47.7974739074707
 },
 {
  "State": "كردستان",
  "City": "بانه",
  "lat": 35.995731353759766,
  "lon": 45.888614654541016
 },
 {
  "State": "كردستان",
  "City": "بلبان آباد",
  "lat": 35.137142181396484,
  "lon": 47.32099151611328
 },
 {
  "State": "كردستان",
  "City": "بوئين سفلي",
  "lat": 35.93898010253906,
  "lon": 45.93625259399414
 },
 {
  "State": "كردستان",
  "City": "بيجار",
  "lat": 35.88286209106445,
  "lon": 47.61825942993164
 },
 {
  "State": "كردستان",
  "City": "چناره",
  "lat": 35.63011932373047,
  "lon": 46.30910110473633
 },
 {
  "State": "كردستان",
  "City": "دزج",
  "lat": 35.06471633911133,
  "lon": 47.963924407958984
 },
 {
  "State": "كردستان",
  "City": "دلبران",
  "lat": 35.2384033203125,
  "lon": 47.98857116699219
 },
 {
  "State": "كردستان",
  "City": "دهگلان",
  "lat": 35.27833557128906,
  "lon": 47.41890335083008
 },
 {
  "State": "كردستان",
  "City": "ديواندره",
  "lat": 35.91249084472656,
  "lon": 47.024906158447266
 },
 {
  "State": "كردستان",
  "City": "زرينه",
  "lat": 36.060726165771484,
  "lon": 46.918766021728516
 },
 {
  "State": "كردستان",
  "City": "سروآباد",
  "lat": 35.311798095703125,
  "lon": 46.36698913574219
 },
 {
  "State": "كردستان",
  "City": "سريش آباد",
  "lat": 35.24881362915039,
  "lon": 47.77849197387695
 },
 {
  "State": "كردستان",
  "City": "سقز",
  "lat": 36.244117736816406,
  "lon": 46.27292251586914
 },
 {
  "State": "كردستان",
  "City": "سنندج",
  "lat": 35.24031448364258,
  "lon": 47.00640869140625
 },
 {
  "State": "كردستان",
  "City": "شويشه",
  "lat": 35.35291290283203,
  "lon": 46.6784553527832
 },
 {
  "State": "كردستان",
  "City": "صاحب",
  "lat": 36.203094482421875,
  "lon": 46.461856842041016
 },
 {
  "State": "كردستان",
  "City": "قروه",
  "lat": 35.16360092163086,
  "lon": 47.81004333496094
 },
 {
  "State": "كردستان",
  "City": "كامياران",
  "lat": 34.79716873168945,
  "lon": 46.9394645690918
 },
 {
  "State": "كردستان",
  "City": "كاني دينار",
  "lat": 35.467533111572266,
  "lon": 46.203338623046875
 },
 {
  "State": "كردستان",
  "City": "كاني سور",
  "lat": 36.059059143066406,
  "lon": 45.74882125854492
 },
 {
  "State": "كردستان",
  "City": "مريوان",
  "lat": 35.51787185668945,
  "lon": 46.18096923828125
 },
 {
  "State": "كردستان",
  "City": "موچش",
  "lat": 35.05914306640625,
  "lon": 47.15448760986328
 },
 {
  "State": "كردستان",
  "City": "ياسوكند",
  "lat": 36.28339385986328,
  "lon": 47.7468147277832
 },
 {
  "State": "كرمان",
  "City": "اختيارآباد",
  "lat": 30.31972312927246,
  "lon": 56.918277740478516
 },
 {
  "State": "كرمان",
  "City": "ارزوئيه",
  "lat": 28.457929611206055,
  "lon": 56.363525390625
 },
 {
  "State": "كرمان",
  "City": "امين شهر",
  "lat": 30.843828201293945,
  "lon": 55.3393669128418
 },
 {
  "State": "كرمان",
  "City": "انار",
  "lat": 30.872549057006836,
  "lon": 55.271629333496094
 },
 {
  "State": "كرمان",
  "City": "اندوهجرد",
  "lat": 30.23103141784668,
  "lon": 57.75406265258789
 },
 {
  "State": "كرمان",
  "City": "باغين",
  "lat": 30.189382553100586,
  "lon": 56.81322479248047
 },
 {
  "State": "كرمان",
  "City": "بافت",
  "lat": 29.232175827026367,
  "lon": 56.59699249267578
 },
 {
  "State": "كرمان",
  "City": "بردسير",
  "lat": 29.924100875854492,
  "lon": 56.57876968383789
 },
 {
  "State": "كرمان",
  "City": "بروات",
  "lat": 29.047006607055664,
  "lon": 58.40858840942383
 },
 {
  "State": "كرمان",
  "City": "بزنجان",
  "lat": 29.25483512878418,
  "lon": 56.69428253173828
 },
 {
  "State": "كرمان",
  "City": "بم",
  "lat": 29.067798614501953,
  "lon": 58.34861755371094
 },
 {
  "State": "كرمان",
  "City": "بهرمان",
  "lat": 30.90431785583496,
  "lon": 55.727386474609375
 },
 {
  "State": "كرمان",
  "City": "پاريز",
  "lat": 29.872621536254883,
  "lon": 55.75054168701172
 },
 {
  "State": "كرمان",
  "City": "جبالبارز",
  "lat": 28.906021118164062,
  "lon": 57.882747650146484
 },
 {
  "State": "كرمان",
  "City": "جوپار",
  "lat": 30.0565242767334,
  "lon": 57.112403869628906
 },
 {
  "State": "كرمان",
  "City": "جوزم",
  "lat": 30.515119552612305,
  "lon": 55.031734466552734
 },
 {
  "State": "كرمان",
  "City": "جيرفت",
  "lat": 28.68039321899414,
  "lon": 57.741973876953125
 },
 {
  "State": "كرمان",
  "City": "چترود",
  "lat": 30.60101890563965,
  "lon": 56.9091682434082
 },
 {
  "State": "كرمان",
  "City": "خاتون آباد",
  "lat": 29.99714469909668,
  "lon": 55.419944763183594
 },
 {
  "State": "كرمان",
  "City": "خانوك",
  "lat": 30.71772003173828,
  "lon": 56.775543212890625
 },
 {
  "State": "كرمان",
  "City": "خورسند",
  "lat": 30.153400421142578,
  "lon": 55.087581634521484
 },
 {
  "State": "كرمان",
  "City": "درب بهشت",
  "lat": 29.23355484008789,
  "lon": 57.336673736572266
 },
 {
  "State": "كرمان",
  "City": "دوساري",
  "lat": 28.423189163208008,
  "lon": 57.9446907043457
 },
 {
  "State": "كرمان",
  "City": "دهج",
  "lat": 30.687166213989258,
  "lon": 54.878177642822266
 },
 {
  "State": "كرمان",
  "City": "رابر",
  "lat": 29.28990936279297,
  "lon": 56.91295623779297
 },
 {
  "State": "كرمان",
  "City": "راور",
  "lat": 31.24226188659668,
  "lon": 56.798423767089844
 },
 {
  "State": "كرمان",
  "City": "راين",
  "lat": 29.598880767822266,
  "lon": 57.435115814208984
 },
 {
  "State": "كرمان",
  "City": "رفسنجان",
  "lat": 30.375276565551758,
  "lon": 55.987648010253906
 },
 {
  "State": "كرمان",
  "City": "رودبار",
  "lat": 28.020816802978516,
  "lon": 57.99457931518555
 },
 {
  "State": "كرمان",
  "City": "ريحان شهر",
  "lat": 30.7513370513916,
  "lon": 56.736080169677734
 },
 {
  "State": "كرمان",
  "City": "زرند",
  "lat": 30.81172752380371,
  "lon": 56.55187225341797
 },
 {
  "State": "كرمان",
  "City": "زنگي آباد",
  "lat": 30.41259765625,
  "lon": 56.91473388671875
 },
 {
  "State": "كرمان",
  "City": "زيدآباد",
  "lat": 29.598569869995117,
  "lon": 55.534908294677734
 },
 {
  "State": "كرمان",
  "City": "سرچشمه",
  "lat": 29.997337341308594,
  "lon": 55.79472351074219
 },
 {
  "State": "كرمان",
  "City": "سيرجان",
  "lat": 29.4376163482666,
  "lon": 55.67490768432617
 },
 {
  "State": "كرمان",
  "City": "شهداد",
  "lat": 30.41668128967285,
  "lon": 57.70170974731445
 },
 {
  "State": "كرمان",
  "City": "شهربابك",
  "lat": 30.11832618713379,
  "lon": 55.12078857421875
 },
 {
  "State": "كرمان",
  "City": "صفائيه",
  "lat": 30.827823638916016,
  "lon": 55.811378479003906
 },
 {
  "State": "كرمان",
  "City": "عنبرآباد",
  "lat": 28.478918075561523,
  "lon": 57.842525482177734
 },
 {
  "State": "كرمان",
  "City": "فارياب",
  "lat": 28.097084045410156,
  "lon": 57.22827911376953
 },
 {
  "State": "كرمان",
  "City": "فهرج",
  "lat": 28.947843551635742,
  "lon": 58.88511276245117
 },
 {
  "State": "كرمان",
  "City": "قلعه گنج",
  "lat": 27.516353607177734,
  "lon": 57.88296890258789
 },
 {
  "State": "كرمان",
  "City": "كاظم آباد",
  "lat": 30.560556411743164,
  "lon": 56.843658447265625
 },
 {
  "State": "كرمان",
  "City": "كرمان",
  "lat": 30.281402587890625,
  "lon": 57.06418228149414
 },
 {
  "State": "كرمان",
  "City": "كشكوئيه",
  "lat": 30.5305233001709,
  "lon": 55.64461898803711
 },
 {
  "State": "كرمان",
  "City": "كوهبنان",
  "lat": 31.413198471069336,
  "lon": 56.279335021972656
 },
 {
  "State": "كرمان",
  "City": "كهنوج",
  "lat": 27.922454833984375,
  "lon": 57.69707489013672
 },
 {
  "State": "كرمان",
  "City": "كيانشهر",
  "lat": 31.156003952026367,
  "lon": 56.38111114501953
 },
 {
  "State": "كرمان",
  "City": "گلباف",
  "lat": 29.88442039489746,
  "lon": 57.73108673095703
 },
 {
  "State": "كرمان",
  "City": "گلزار",
  "lat": 29.71124839782715,
  "lon": 57.04011154174805
 },
 {
  "State": "كرمان",
  "City": "لاله زار",
  "lat": 29.522951126098633,
  "lon": 56.81635284423828
 },
 {
  "State": "كرمان",
  "City": "ماهان",
  "lat": 30.05790901184082,
  "lon": 57.28974533081055
 },
 {
  "State": "كرمان",
  "City": "محمد آباد ",
  "lat": 28.64166831970215,
  "lon": 59.0174674987793
 },
 {
  "State": "كرمان",
  "City": "محي آباد",
  "lat": 30.071674346923828,
  "lon": 57.23011016845703
 },
 {
  "State": "كرمان",
  "City": "مردهك",
  "lat": 28.34990882873535,
  "lon": 58.15991973876953
 },
 {
  "State": "كرمان",
  "City": "منوجان",
  "lat": 27.403667449951172,
  "lon": 57.49675750732422
 },
 {
  "State": "كرمان",
  "City": "نجف شهر",
  "lat": 29.391233444213867,
  "lon": 55.7205696105957
 },
 {
  "State": "كرمان",
  "City": "نرماشير",
  "lat": 28.951528549194336,
  "lon": 58.699405670166016
 },
 {
  "State": "كرمان",
  "City": "نظام شهر",
  "lat": 28.913070678710938,
  "lon": 58.55143356323242
 },
 {
  "State": "كرمان",
  "City": "نگار",
  "lat": 29.85721778869629,
  "lon": 56.80291748046875
 },
 {
  "State": "كرمان",
  "City": "نودژ",
  "lat": 27.527156829833984,
  "lon": 57.449424743652344
 },
 {
  "State": "كرمان",
  "City": "هجدك",
  "lat": 30.757606506347656,
  "lon": 56.9962043762207
 },
 {
  "State": "كرمان",
  "City": "هماشهر ",
  "lat": 29.662635803222656,
  "lon": 55.80966567993164
 },
 {
  "State": "كرمان",
  "City": "يزدان شهر",
  "lat": 30.86643409729004,
  "lon": 56.375892639160156
 },
 {
  "State": "كرمانشاه",
  "City": "ازگله",
  "lat": 34.83340072631836,
  "lon": 45.8419189453125
 },
 {
  "State": "كرمانشاه",
  "City": "اسلام آبادغرب",
  "lat": 34.109615325927734,
  "lon": 46.52056884765625
 },
 {
  "State": "كرمانشاه",
  "City": "باينگان",
  "lat": 34.981407165527344,
  "lon": 46.27041244506836
 },
 {
  "State": "كرمانشاه",
  "City": "بيستون",
  "lat": 34.39458465576172,
  "lon": 47.44768524169922
 },
 {
  "State": "كرمانشاه",
  "City": "پاوه",
  "lat": 35.02669143676758,
  "lon": 46.366966247558594
 },
 {
  "State": "كرمانشاه",
  "City": "تازه آباد",
  "lat": 34.73862075805664,
  "lon": 46.151615142822266
 },
 {
  "State": "كرمانشاه",
  "City": "جوانرود",
  "lat": 34.8061637878418,
  "lon": 46.492191314697266
 },
 {
  "State": "كرمانشاه",
  "City": "حميل",
  "lat": 33.938011169433594,
  "lon": 46.772865295410156
 },
 {
  "State": "كرمانشاه",
  "City": "رباط",
  "lat": 34.268592834472656,
  "lon": 46.80641174316406
 },
 {
  "State": "كرمانشاه",
  "City": "روانسر",
  "lat": 34.71617889404297,
  "lon": 46.656070709228516
 },
 {
  "State": "كرمانشاه",
  "City": "سرپل ذهاب",
  "lat": 34.44868087768555,
  "lon": 45.8630256652832
 },
 {
  "State": "كرمانشاه",
  "City": "سرمست",
  "lat": 34.026954650878906,
  "lon": 46.33175277709961
 },
 {
  "State": "كرمانشاه",
  "City": "سطر",
  "lat": 34.81338882446289,
  "lon": 47.46087646484375
 },
 {
  "State": "كرمانشاه",
  "City": "سنقر",
  "lat": 34.7627067565918,
  "lon": 47.599632263183594
 },
 {
  "State": "كرمانشاه",
  "City": "سومار",
  "lat": 33.865535736083984,
  "lon": 45.64097213745117
 },
 {
  "State": "كرمانشاه",
  "City": "شاهو",
  "lat": 34.930789947509766,
  "lon": 46.46110916137695
 },
 {
  "State": "كرمانشاه",
  "City": "صحنه",
  "lat": 34.47551727294922,
  "lon": 47.685218811035156
 },
 {
  "State": "كرمانشاه",
  "City": "قصرشيرين",
  "lat": 34.507530212402344,
  "lon": 45.589290618896484
 },
 {
  "State": "كرمانشاه",
  "City": "كرمانشاه",
  "lat": 34.31409454345703,
  "lon": 47.09714126586914
 },
 {
  "State": "كرمانشاه",
  "City": "كرندغرب",
  "lat": 34.27870559692383,
  "lon": 46.23203659057617
 },
 {
  "State": "كرمانشاه",
  "City": "كنگاور",
  "lat": 34.50166702270508,
  "lon": 47.96202087402344
 },
 {
  "State": "كرمانشاه",
  "City": "كوزران",
  "lat": 34.49576187133789,
  "lon": 46.602073669433594
 },
 {
  "State": "كرمانشاه",
  "City": "گهواره",
  "lat": 34.34408187866211,
  "lon": 46.41585922241211
 },
 {
  "State": "كرمانشاه",
  "City": "گيلانغرب",
  "lat": 34.14031982421875,
  "lon": 45.924766540527344
 },
 {
  "State": "كرمانشاه",
  "City": "ميان راهان",
  "lat": 34.58388137817383,
  "lon": 47.44466781616211
 },
 {
  "State": "كرمانشاه",
  "City": "نودشه",
  "lat": 35.180503845214844,
  "lon": 46.2534065246582
 },
 {
  "State": "كرمانشاه",
  "City": "نوسود",
  "lat": 35.15751266479492,
  "lon": 46.206539154052734
 },
 {
  "State": "كرمانشاه",
  "City": "هرسين",
  "lat": 34.27000427246094,
  "lon": 47.58037567138672
 },
 {
  "State": "كرمانشاه",
  "City": "هلشي",
  "lat": 34.11015319824219,
  "lon": 47.090431213378906
 },
 {
  "State": "كهگيلويه وبويراحمد",
  "City": "باشت",
  "lat": 30.36212730407715,
  "lon": 51.15632629394531
 },
 {
  "State": "كهگيلويه وبويراحمد",
  "City": "پاتاوه",
  "lat": 30.952571868896484,
  "lon": 51.270751953125
 },
 {
  "State": "كهگيلويه وبويراحمد",
  "City": "چرام",
  "lat": 30.75547218322754,
  "lon": 50.74684143066406
 },
 {
  "State": "كهگيلويه وبويراحمد",
  "City": "چيتاب",
  "lat": 30.794918060302734,
  "lon": 51.324737548828125
 },
 {
  "State": "كهگيلويه وبويراحمد",
  "City": "دوگنبدان",
  "lat": 30.363462448120117,
  "lon": 50.78301239013672
 },
 {
  "State": "كهگيلويه وبويراحمد",
  "City": "دهدشت",
  "lat": 30.795211791992188,
  "lon": 50.563350677490234
 },
 {
  "State": "كهگيلويه وبويراحمد",
  "City": "ديشموك",
  "lat": 31.29852294921875,
  "lon": 50.40176773071289
 },
 {
  "State": "كهگيلويه وبويراحمد",
  "City": "سوق",
  "lat": 30.85565185546875,
  "lon": 50.4598388671875
 },
 {
  "State": "كهگيلويه وبويراحمد",
  "City": "سي سخت",
  "lat": 30.85756492614746,
  "lon": 51.4587287902832
 },
 {
  "State": "كهگيلويه وبويراحمد",
  "City": "قلعه رئيسي",
  "lat": 31.19034767150879,
  "lon": 50.44401168823242
 },
 {
  "State": "كهگيلويه وبويراحمد",
  "City": "گراب سفلي",
  "lat": 30.944581985473633,
  "lon": 50.89936828613281
 },
 {
  "State": "كهگيلويه وبويراحمد",
  "City": "لنده",
  "lat": 30.982667922973633,
  "lon": 50.4196891784668
 },
 {
  "State": "كهگيلويه وبويراحمد",
  "City": "ليكك",
  "lat": 30.897184371948242,
  "lon": 50.09283447265625
 },
 {
  "State": "كهگيلويه وبويراحمد",
  "City": "مادوان",
  "lat": 30.712148666381836,
  "lon": 51.5545654296875
 },
 {
  "State": "كهگيلويه وبويراحمد",
  "City": "مارگون",
  "lat": 30.99334144592285,
  "lon": 51.07814025878906
 },
 {
  "State": "كهگيلويه وبويراحمد",
  "City": "ياسوج",
  "lat": 30.656763076782227,
  "lon": 51.58242416381836
 },
 {
  "State": "گلستان",
  "City": "انبارآلوم",
  "lat": 37.13272476196289,
  "lon": 54.61863327026367
 },
 {
  "State": "گلستان",
  "City": "اينچه برون",
  "lat": 37.453834533691406,
  "lon": 54.71900177001953
 },
 {
  "State": "گلستان",
  "City": "آزادشهر",
  "lat": 37.086631774902344,
  "lon": 55.16947937011719
 },
 {
  "State": "گلستان",
  "City": "آق قلا",
  "lat": 37.00954055786133,
  "lon": 54.45674514770508
 },
 {
  "State": "گلستان",
  "City": "بندرگز",
  "lat": 36.754058837890625,
  "lon": 53.950714111328125
 },
 {
  "State": "گلستان",
  "City": "تركمن",
  "lat": 36.903011322021484,
  "lon": 54.07501983642578
 },
 {
  "State": "گلستان",
  "City": "جلين",
  "lat": 36.854644775390625,
  "lon": 54.5367431640625
 },
 {
  "State": "گلستان",
  "City": "خان ببين",
  "lat": 37.01268005371094,
  "lon": 54.987815856933594
 },
 {
  "State": "گلستان",
  "City": "دلند",
  "lat": 37.035247802734375,
  "lon": 55.042259216308594
 },
 {
  "State": "گلستان",
  "City": "راميان",
  "lat": 37.01845169067383,
  "lon": 55.1420783996582
 },
 {
  "State": "گلستان",
  "City": "سرخنكلاته",
  "lat": 36.88298034667969,
  "lon": 54.569393157958984
 },
 {
  "State": "گلستان",
  "City": "سيمين شهر",
  "lat": 37.01129913330078,
  "lon": 54.23208999633789
 },
 {
  "State": "گلستان",
  "City": "علي آباد",
  "lat": 36.91240310668945,
  "lon": 54.85770034790039
 },
 {
  "State": "گلستان",
  "City": "فاضل آباد",
  "lat": 36.89946746826172,
  "lon": 54.75127029418945
 },
 {
  "State": "گلستان",
  "City": "كردكوي",
  "lat": 36.794525146484375,
  "lon": 54.10991668701172
 },
 {
  "State": "گلستان",
  "City": "كلاله",
  "lat": 37.38112258911133,
  "lon": 55.491615295410156
 },
 {
  "State": "گلستان",
  "City": "گاليكش",
  "lat": 37.27040481567383,
  "lon": 55.43107223510742
 },
 {
  "State": "گلستان",
  "City": "گرگان",
  "lat": 36.84519958496094,
  "lon": 54.42879867553711
 },
 {
  "State": "گلستان",
  "City": "گميش تپه",
  "lat": 37.071659088134766,
  "lon": 54.07542037963867
 },
 {
  "State": "گلستان",
  "City": "گنبد كاووس",
  "lat": 37.2478141784668,
  "lon": 55.17573928833008
 },
 {
  "State": "گلستان",
  "City": "مراوه تپه",
  "lat": 37.90470886230469,
  "lon": 55.961727142333984
 },
 {
  "State": "گلستان",
  "City": "مينودشت",
  "lat": 37.22966003417969,
  "lon": 55.37508773803711
 },
 {
  "State": "گلستان",
  "City": "نگين شهر",
  "lat": 37.13905715942383,
  "lon": 55.164146423339844
 },
 {
  "State": "گلستان",
  "City": "نوده خاندوز",
  "lat": 37.07626724243164,
  "lon": 55.26222229003906
 },
 {
  "State": "گلستان",
  "City": "نوكنده",
  "lat": 36.73976516723633,
  "lon": 53.91312026977539
 },
 {
  "State": "گيلان",
  "City": "احمدسرگوراب",
  "lat": 37.13359832763672,
  "lon": 49.36792755126953
 },
 {
  "State": "گيلان",
  "City": "اسالم",
  "lat": 37.73570251464844,
  "lon": 48.94587326049805
 },
 {
  "State": "گيلان",
  "City": "اطاقور",
  "lat": 37.11016845703125,
  "lon": 50.113868713378906
 },
 {
  "State": "گيلان",
  "City": "املش",
  "lat": 37.08721160888672,
  "lon": 50.1910285949707
 },
 {
  "State": "گيلان",
  "City": "آستارا",
  "lat": 38.38718032836914,
  "lon": 48.86924743652344
 },
 {
  "State": "گيلان",
  "City": "آستانه اشرفيه",
  "lat": 37.26359176635742,
  "lon": 49.944908142089844
 },
 {
  "State": "گيلان",
  "City": "بازارجمعه",
  "lat": 37.40681838989258,
  "lon": 49.11826705932617
 },
 {
  "State": "گيلان",
  "City": "بره سر",
  "lat": 36.77672576904297,
  "lon": 49.752410888671875
 },
 {
  "State": "گيلان",
  "City": "بندرانزلي",
  "lat": 37.466705322265625,
  "lon": 49.46269989013672
 },
 {
  "State": "گيلان",
  "City": "پره سر",
  "lat": 37.603431701660156,
  "lon": 49.06938171386719
 },
 {
  "State": "گيلان",
  "City": "توتكابن",
  "lat": 36.8939094543457,
  "lon": 49.52566909790039
 },
 {
  "State": "گيلان",
  "City": "جيرنده",
  "lat": 36.70132827758789,
  "lon": 49.79056167602539
 },
 {
  "State": "گيلان",
  "City": "چابكسر",
  "lat": 36.974639892578125,
  "lon": 50.55472183227539
 },
 {
  "State": "گيلان",
  "City": "چاف وچمخاله",
  "lat": 37.21646499633789,
  "lon": 50.22565841674805
 },
 {
  "State": "گيلان",
  "City": "چوبر",
  "lat": 37.08962631225586,
  "lon": 49.42182540893555
 },
 {
  "State": "گيلان",
  "City": "حويق",
  "lat": 38.15422058105469,
  "lon": 48.89034652709961
 },
 {
  "State": "گيلان",
  "City": "خشكبيجار",
  "lat": 37.3741455078125,
  "lon": 49.758697509765625
 },
 {
  "State": "گيلان",
  "City": "خمام",
  "lat": 37.38215255737305,
  "lon": 49.6518440246582
 },
 {
  "State": "گيلان",
  "City": "ديلمان",
  "lat": 36.883541107177734,
  "lon": 49.907142639160156
 },
 {
  "State": "گيلان",
  "City": "رانكوه",
  "lat": 37.049774169921875,
  "lon": 50.23648452758789
 },
 {
  "State": "گيلان",
  "City": "رحيم آباد",
  "lat": 37.033164978027344,
  "lon": 50.33705139160156
 },
 {
  "State": "گيلان",
  "City": "رستم آباد",
  "lat": 36.884071350097656,
  "lon": 49.491573333740234
 },
 {
  "State": "گيلان",
  "City": "رشت",
  "lat": 37.28414535522461,
  "lon": 49.59040832519531
 },
 {
  "State": "گيلان",
  "City": "رضوانشهر ",
  "lat": 37.55055618286133,
  "lon": 49.13970184326172
 },
 {
  "State": "گيلان",
  "City": "رودبار ",
  "lat": 36.80665969848633,
  "lon": 49.418975830078125
 },
 {
  "State": "گيلان",
  "City": "رودبنه",
  "lat": 37.256591796875,
  "lon": 50.00820541381836
 },
 {
  "State": "گيلان",
  "City": "رودسر",
  "lat": 37.13264846801758,
  "lon": 50.300254821777344
 },
 {
  "State": "گيلان",
  "City": "سنگر",
  "lat": 37.179141998291016,
  "lon": 49.697715759277344
 },
 {
  "State": "گيلان",
  "City": "سياهكل",
  "lat": 37.151092529296875,
  "lon": 49.872371673583984
 },
 {
  "State": "گيلان",
  "City": "شفت",
  "lat": 37.163814544677734,
  "lon": 49.40309143066406
 },
 {
  "State": "گيلان",
  "City": "شلمان",
  "lat": 37.1599006652832,
  "lon": 50.216651916503906
 },
 {
  "State": "گيلان",
  "City": "صومعه سرا",
  "lat": 37.302833557128906,
  "lon": 49.32012176513672
 },
 {
  "State": "گيلان",
  "City": "فومن",
  "lat": 37.22570037841797,
  "lon": 49.31100082397461
 },
 {
  "State": "گيلان",
  "City": "كلاچاي",
  "lat": 37.07468032836914,
  "lon": 50.3994026184082
 },
 {
  "State": "گيلان",
  "City": "كوچصفهان",
  "lat": 37.277164459228516,
  "lon": 49.76813888549805
 },
 {
  "State": "گيلان",
  "City": "كومله",
  "lat": 37.15062713623047,
  "lon": 50.17618179321289
 },
 {
  "State": "گيلان",
  "City": "كياشهر",
  "lat": 37.42233657836914,
  "lon": 49.93053436279297
 },
 {
  "State": "گيلان",
  "City": "گوراب زرميخ",
  "lat": 37.3001594543457,
  "lon": 49.218631744384766
 },
 {
  "State": "گيلان",
  "City": "لاهيجان",
  "lat": 37.202392578125,
  "lon": 50.01081848144531
 },
 {
  "State": "گيلان",
  "City": "لشت نشاء",
  "lat": 37.362388610839844,
  "lon": 49.86184310913086
 },
 {
  "State": "گيلان",
  "City": "لنگرود",
  "lat": 37.195674896240234,
  "lon": 50.14742660522461
 },
 {
  "State": "گيلان",
  "City": "لوشان",
  "lat": 36.631256103515625,
  "lon": 49.5147705078125
 },
 {
  "State": "گيلان",
  "City": "لولمان",
  "lat": 37.252349853515625,
  "lon": 49.8250846862793
 },
 {
  "State": "گيلان",
  "City": "لوندويل",
  "lat": 38.309268951416016,
  "lon": 48.86349105834961
 },
 {
  "State": "گيلان",
  "City": "ليسار",
  "lat": 37.9374885559082,
  "lon": 48.916236877441406
 },
 {
  "State": "گيلان",
  "City": "ماسال",
  "lat": 37.365501403808594,
  "lon": 49.13176727294922
 },
 {
  "State": "گيلان",
  "City": "ماسوله",
  "lat": 37.156036376953125,
  "lon": 48.9893798828125
 },
 {
  "State": "گيلان",
  "City": "مرجقل",
  "lat": 37.283599853515625,
  "lon": 49.379486083984375
 },
 {
  "State": "گيلان",
  "City": "منجيل",
  "lat": 36.74129867553711,
  "lon": 49.418540954589844
 },
 {
  "State": "گيلان",
  "City": "واجارگاه",
  "lat": 37.041751861572266,
  "lon": 50.41373825073242
 },
 {
  "State": "گيلان",
  "City": "هشتپر",
  "lat": 37.79555892944336,
  "lon": 48.904380798339844
 },
 {
  "State": "لرستان",
  "City": "ازنا",
  "lat": 33.45732879638672,
  "lon": 49.4542121887207
 },
 {
  "State": "لرستان",
  "City": "اشترينان",
  "lat": 34.01740646362305,
  "lon": 48.64218521118164
 },
 {
  "State": "لرستان",
  "City": "الشتر",
  "lat": 33.86140823364258,
  "lon": 48.259765625
 },
 {
  "State": "لرستان",
  "City": "اليگودرز",
  "lat": 33.401546478271484,
  "lon": 49.69316864013672
 },
 {
  "State": "لرستان",
  "City": "بروجرد",
  "lat": 33.898292541503906,
  "lon": 48.75468063354492
 },